{
"type": "FeatureCollection",
"features": [
{ "type": "Feature", "properties": { "name": "McDonald'sBukitBintang", "address": "120-120AJalanBukitBintang,55100,KualaLumpur,Malaysia", "telephone": "03-21427843", "parlimen": "P.120 Bukit Bintang", "dun": null, "latitude": 3.146847, "longitude": 101.710931 }, "geometry": { "type": "Point", "coordinates": [ 101.710931, 3.146847 ] } },
{ "type": "Feature", "properties": { "name": "McDonald'sBangsar", "address": "48,JalanTelawiLima,59100,BangsarBaru,Bangsar,KualaLumpur,Malaysia", "telephone": "03-22843790", "parlimen": "P.121 Lembah Pantai", "dun": null, "latitude": 3.13295, "longitude": 101.672297 }, "geometry": { "type": "Point", "coordinates": [ 101.672297, 3.13295 ] } },
{ "type": "Feature", "properties": { "name": "McDonald'sSS2", "address": "No.56JalanSS2/61,47300,PetalingJaya,Selangor,Malaysia", "telephone": "03-78731026", "parlimen": "P.106 Damansara", "dun": "N.35 Kampung Tunku", "latitude": 3.118274, "longitude": 101.620423 }, "geometry": { "type": "Point", "coordinates": [ 101.620423, 3.118274 ] } },
{ "type": "Feature", "properties": { "name": "McDonald'sKepong", "address": "No.1&2Jalan54,DesaJaya,52100,Kepong,Selangor,Malaysia", "telephone": "03-62614381", "parlimen": "P.106 Damansara", "dun": "N.37 Bukit Lanjan", "latitude": 3.213549, "longitude": 101.63281 }, "geometry": { "type": "Point", "coordinates": [ 101.63281, 3.213549 ] } },
{ "type": "Feature", "properties": { "name": "McDonald'sSubangParade", "address": "LG10SubangParade,No.5JalanSS16/1,47500,SubangJaya,Selangor,Malaysia", "telephone": "03-55495398", "parlimen": "P.104 Subang", "dun": "N.31 Subang Jaya", "latitude": 3.081861, "longitude": 101.585211 }, "geometry": { "type": "Point", "coordinates": [ 101.585211, 3.081861 ] } },
{ "type": "Feature", "properties": { "name": "McDonald'sTitiwangsaDT", "address": "Lot8,Section85,JalanPahang,53000,Setapak,KualaLumpur,Malaysia", "telephone": "03-40232602", "parlimen": "P.118 Setiawangsa", "dun": null, "latitude": 3.179551, "longitude": 101.700383 }, "geometry": { "type": "Point", "coordinates": [ 101.700383, 3.179551 ] } },
{ "type": "Feature", "properties": { "name": "McDonald'sGreenlaneDT", "address": "Lot2506/7,Section6,JalanMasjidNegeri,11600,Penang,PulauPinang,Malaysia", "telephone": "04-2834299", "parlimen": "P.050 Jelutong", "dun": "N.31 Batu Lancang", "latitude": 5.401264, "longitude": 100.304258 }, "geometry": { "type": "Point", "coordinates": [ 100.304258, 5.401264 ] } },
{ "type": "Feature", "properties": { "name": "McDonald'sPlazaPelangi", "address": "Lot1.19,PlazaPelangi,JalanTebrau/JalanKuning,80400,JohorBahru,Johor,Malaysia", "telephone": "07-3311746", "parlimen": "P.160 Johor Bahru", "dun": "N.45 Stulang", "latitude": 1.4799, "longitude": 103.7651 }, "geometry": { "type": "Point", "coordinates": [ 103.7651, 1.4799 ] } },
{ "type": "Feature", "properties": { "name": "McDonald'sAlphaAngle", "address": "LotG-13,GroundFloor,AlphaAngleComple,JalanR1,WangsaMaju,53000,Setapak,KualaLumpur,Malaysia", "telephone": "03-41311340", "parlimen": "P.116 Wangsa Maju", "dun": null, "latitude": 3.202098, "longitude": 101.734244 }, "geometry": { "type": "Point", "coordinates": [ 101.734244, 3.202098 ] } },
{ "type": "Feature", "properties": { "name": "McDonald'sKajang", "address": "27&28,JalanAbdulAziz,43000,Kajang,Selangor,Malaysia", "telephone": "03-87335649", "parlimen": "P.102 Bangi", "dun": "N.25 Kajang", "latitude": 2.991572, "longitude": 101.791236 }, "geometry": { "type": "Point", "coordinates": [ 101.791236, 2.991572 ] } },
{ "type": "Feature", "properties": { "name": "McDonald'sKuching", "address": "2ndFloor,Lot268-269,JalanTuankuAbdulRahman,93100,Kuching,Sarawak,Malaysia", "telephone": "082-232278", "parlimen": "P.195 Bandar Kuching", "dun": "N.09 Padungan", "latitude": 1.557502, "longitude": 110.353033 }, "geometry": { "type": "Point", "coordinates": [ 110.353033, 1.557502 ] } },
{ "type": "Feature", "properties": { "name": "McDonald'sSOGO", "address": "Lot6,LGFSogoPernasDepartmentStoresS/B,190,JalanTuankuAbdulRahman,50100,KualaLumpur,Malaysia", "telephone": "03-22028063", "parlimen": "P.120 Bukit Bintang", "dun": null, "latitude": 3.156262, "longitude": 101.695574 }, "geometry": { "type": "Point", "coordinates": [ 101.695574, 3.156262 ] } },
{ "type": "Feature", "properties": { "name": "McDonald'sLeisureMallCheras", "address": "LG16,LowerGroundFloor,LeisureMall,TamanSegar,No.6,JalanCheras,56100,Cheras,KualaLumpur,Malaysia", "telephone": "03-91327577", "parlimen": "P.123 Cheras", "dun": null, "latitude": 3.090122, "longitude": 101.74152 }, "geometry": { "type": "Point", "coordinates": [ 101.74152, 3.090122 ] } },
{ "type": "Feature", "properties": { "name": "McDonald'sTaipan", "address": "No4,JalanUSJ10/1,TaipanUSJ,SubangJaya,47620,USJ,Selangor,Malaysia", "telephone": "03-80115219", "parlimen": "P.104 Subang", "dun": "N.31 Subang Jaya", "latitude": 3.048248, "longitude": 101.585878 }, "geometry": { "type": "Point", "coordinates": [ 101.585878, 3.048248 ] } },
{ "type": "Feature", "properties": { "name": "McDonald'sSunshineSquare", "address": "Level1,Lot1.01,AnneedBuilding,SunshineComple,11950,BayanBaru,PulauPinang,Malaysia", "telephone": "04-6427731", "parlimen": "P.052 Bayan Baru", "dun": "N.36 Pantai Jerejak", "latitude": 5.325744, "longitude": 100.287327 }, "geometry": { "type": "Point", "coordinates": [ 100.287327, 5.325744 ] } },
{ "type": "Feature", "properties": { "name": "McDonald'sSelayangMall", "address": "LotB.44,SelayangMallShoppingCentre,JalanSU9,TamanSelayangUtama,68100,Selayang,Selangor,Malaysia", "telephone": "03-61201740", "parlimen": "P.106 Damansara", "dun": "N.37 Bukit Lanjan", "latitude": 3.237539, "longitude": 101.644754 }, "geometry": { "type": "Point", "coordinates": [ 101.644754, 3.237539 ] } },
{ "type": "Feature", "properties": { "name": "McDonald'sSegamat", "address": "ShopNo.111,112,113,JalanSiaHarYam,85000,Segamat,Johor,Malaysia", "telephone": "07-9320531", "parlimen": "P.140 Segamat", "dun": "N.02 Jementah", "latitude": 2.503335, "longitude": 102.821686 }, "geometry": { "type": "Point", "coordinates": [ 102.821686, 2.503335 ] } },
{ "type": "Feature", "properties": { "name": "McDonald'sMuar", "address": "G-25,WeteParade,JalanAli,84000,Muar,Johor,Malaysia", "telephone": "06-9517848", "parlimen": "P.145 Bakri", "dun": "N.12 Bentayan", "latitude": 2.04456, "longitude": 102.566181 }, "geometry": { "type": "Point", "coordinates": [ 102.566181, 2.04456 ] } },
{ "type": "Feature", "properties": { "name": "McDonald'sTerminal1Seremban", "address": "LotLG35,LowerGround,Terminal1ShoppingComple,70300,Seremban,NegeriSembilan,Malaysia", "telephone": "06-7621257", "parlimen": "P.130 Rasah", "dun": "N.21 Bukit Kepayang", "latitude": 2.722481, "longitude": 101.936979 }, "geometry": { "type": "Point", "coordinates": [ 101.936979, 2.722481 ] } },
{ "type": "Feature", "properties": { "name": "McDonald'sAmpangPoint", "address": "LotG08,GroundFloor,AmpangPointShoppingCentre,JalanMamanda3,68000,Ampang,Selangor,Malaysia", "telephone": "03-42653689", "parlimen": "P.099 Ampang", "dun": "N.19 Bukit Antarabangsa", "latitude": 3.157739, "longitude": 101.750803 }, "geometry": { "type": "Point", "coordinates": [ 101.750803, 3.157739 ] } },
{ "type": "Feature", "properties": { "name": "McDonald'sIOIPuchongMall", "address": "Lot17,GroundFloor,IOIMall,Batu9JalanPuchong,BandarPuchongJaya,47100,Puchong,Selangor,Malaysia", "telephone": "03-80718009", "parlimen": "P.104 Subang", "dun": "N.30 Kinrara", "latitude": 3.045519, "longitude": 101.618013 }, "geometry": { "type": "Point", "coordinates": [ 101.618013, 3.045519 ] } },
{ "type": "Feature", "properties": { "name": "McDonald'sDesaPandan", "address": "Lot2&2-1,Jalan1/76D,DesaPandan,55100,KualaLumpur,Malaysia", "telephone": "03-92852636", "parlimen": "P.119 Titiwangsa", "dun": null, "latitude": 3.14709, "longitude": 101.736853 }, "geometry": { "type": "Point", "coordinates": [ 101.736853, 3.14709 ] } },
{ "type": "Feature", "properties": { "name": "McDonald'sCityPlaza", "address": "GF7,CityPlaza,JalanTuankuIbrahim,05100,AlorSetar,Kedah,Malaysia", "telephone": "04-7308288", "parlimen": "P.009 Alor Setar", "dun": "N.13 Kota Darul Aman", "latitude": 6.11773, "longitude": 100.369718 }, "geometry": { "type": "Point", "coordinates": [ 100.369718, 6.11773 ] } },
{ "type": "Feature", "properties": { "name": "McDonald'sCentralSquare", "address": "G16-G19,GroundFloor,KompleksCentralSquare,23,JalanKampungBaru,08000,SungaiPetani,Kedah,Malaysia", "telephone": "04-4211117", "parlimen": "P.015 Sungai Petani", "dun": "N.28 Bakar Arang", "latitude": 5.636536, "longitude": 100.488095 }, "geometry": { "type": "Point", "coordinates": [ 100.488095, 5.636536 ] } },
{ "type": "Feature", "properties": { "name": "McDonald'sTheMines", "address": "Lot79,2ndFloor,TheMinesShoppingFair,JalanDulang,MinesResortCity,43300,SriKembangan,Selangor,Malaysia", "telephone": "03-89425749", "parlimen": "P.103 Puchong", "dun": "N.28 Seri Kembangan", "latitude": 3.027901, "longitude": 101.718106 }, "geometry": { "type": "Point", "coordinates": [ 101.718106, 3.027901 ] } },
{ "type": "Feature", "properties": { "name": "McDonald'sKluang", "address": "No.1,JalanMd.LazimSaim,86000,Kluang,Johor,Malaysia", "telephone": "07-7716134", "parlimen": "P.152 Kluang", "dun": "N.29 Mahkota", "latitude": 2.034448, "longitude": 103.320414 }, "geometry": { "type": "Point", "coordinates": [ 103.320414, 2.034448 ] } },
{ "type": "Feature", "properties": { "name": "McDonald'sDesaUniversiti", "address": "Lot4B,4C&4D,DesaUniversiti,JalanSg.Dua,11700,SungaiDua,PulauPinang,Malaysia", "telephone": "04-6599399", "parlimen": "P.052 Bayan Baru", "dun": "N.35 Batu Uban", "latitude": 5.352584, "longitude": 100.299424 }, "geometry": { "type": "Point", "coordinates": [ 100.299424, 5.352584 ] } },
{ "type": "Feature", "properties": { "name": "McDonald'sPermasJaya", "address": "No2,JalanPermasJaya10,BandarBaruPermasJaya,80400,JohorBahru,Johor,Malaysia", "telephone": "07-3804925", "parlimen": "P.159 Pasir Gudang", "dun": "N.43 Permas", "latitude": 1.49526, "longitude": 103.815515 }, "geometry": { "type": "Point", "coordinates": [ 103.815515, 1.49526 ] } },
{ "type": "Feature", "properties": { "name": "McDonald'sBukitJambul", "address": "3A-G-19,KompleksBukitJambul,JalanRumbia,11900,PulauPinang,Malaysia", "telephone": "04-6468988", "parlimen": "P.052 Bayan Baru", "dun": "N.35 Batu Uban", "latitude": 5.334074, "longitude": 100.290991 }, "geometry": { "type": "Point", "coordinates": [ 100.290991, 5.334074 ] } },
{ "type": "Feature", "properties": { "name": "McDonald'sSunwayPyramid", "address": "LL2.41,SunwayPyramidMegamall,No.3,JalanPJS11/15,BandarSunway,46150,Selangor,Malaysia", "telephone": "03-56112097", "parlimen": "P.104 Subang", "dun": "N.31 Subang Jaya", "latitude": 3.071924, "longitude": 101.607403 }, "geometry": { "type": "Point", "coordinates": [ 101.607403, 3.071924 ] } },
{ "type": "Feature", "properties": { "name": "McDonald'sJalanTunPerak", "address": "38,JalanTunPerak,Ground&MezzanineFloor,WismaTeckLee,50050,KualaLumpur,Malaysia", "telephone": "03-20266899", "parlimen": "P.120 Bukit Bintang", "dun": null, "latitude": 3.149178, "longitude": 101.696865 }, "geometry": { "type": "Point", "coordinates": [ 101.696865, 3.149178 ] } },
{ "type": "Feature", "properties": { "name": "McDonald'sGombak", "address": "M01&M02,KompleksIdaman,No.40-50,Jalan2/21D,MedanIdaman,Batu51/4,JalanGombak,53000,KualaLumpur,Malaysia", "telephone": "03-40316251", "parlimen": "P.116 Wangsa Maju", "dun": null, "latitude": 3.212711, "longitude": 101.711531 }, "geometry": { "type": "Point", "coordinates": [ 101.711531, 3.212711 ] } },
{ "type": "Feature", "properties": { "name": "McDonald'sBandarBaruNilai", "address": "ShoplotPTNo.7330,BandarBaruNilai,79149Nilai,NegeriSembilan,Malaysia", "telephone": "06-7948788", "parlimen": "P.128 Seremban", "dun": "N.10 Nilai", "latitude": 2.815152, "longitude": 101.791978 }, "geometry": { "type": "Point", "coordinates": [ 101.791978, 2.815152 ] } },
{ "type": "Feature", "properties": { "name": "McDonald'sPlazaAngsana", "address": "LotNo.L1-27,PlazaAngsana,JalanSkudai,PusatBandarTampoi,81000,Johor,Malaysia", "telephone": "07-2321277", "parlimen": "P.161 Pulai", "dun": "N.47 Kempas", "latitude": 1.495077, "longitude": 103.705668 }, "geometry": { "type": "Point", "coordinates": [ 103.705668, 1.495077 ] } },
{ "type": "Feature", "properties": { "name": "McDonald'sLangkawiFair", "address": "GF3,LangkawiFair,Lot44,JalanPersiaranPutra,07000,Langkawi,Kedah,Malaysia", "telephone": "04-9662388", "parlimen": "P.004 Langkawi", "dun": "N.02 Kuah", "latitude": 6.310419, "longitude": 99.85622 }, "geometry": { "type": "Point", "coordinates": [ 99.85622, 6.310419 ] } },
{ "type": "Feature", "properties": { "name": "McDonald'sKuchingII", "address": "GroundFloor,ShopLotNo.12&13,3rdMile,JalanTunAhmadZaidiAdruce,93250,Kuching,Sarawak,Malaysia", "telephone": "082-232265", "parlimen": "P.195 Bandar Kuching", "dun": "N.11 Batu Lintang", "latitude": 1.525011, "longitude": 110.336949 }, "geometry": { "type": "Point", "coordinates": [ 110.336949, 1.525011 ] } },
{ "type": "Feature", "properties": { "name": "McDonald'sGentingSempahDT", "address": "KawasanRehatGenting-Sempah,KM38.4LebuhrayaKL-Karak,GentingSempah,28750,Bentong,Pahang,Malaysia", "telephone": "09-2330833", "parlimen": "P.089 Bentong", "dun": "N.34 Ketari", "latitude": 3.351034, "longitude": 101.790741 }, "geometry": { "type": "Point", "coordinates": [ 101.790741, 3.351034 ] } },
{ "type": "Feature", "properties": { "name": "McDonald'sMegaMallKuantan", "address": "LotNo.G-89&1-85(Ground&First),BerjayaMegamall,JalanTunIsmail,SriDagangan,25000,Kuantan,Pahang,Malaysia", "telephone": "09-5316255", "parlimen": "P.083 Kuantan", "dun": "N.14 Teruntum", "latitude": 3.816003, "longitude": 103.330452 }, "geometry": { "type": "Point", "coordinates": [ 103.330452, 3.816003 ] } },
{ "type": "Feature", "properties": { "name": "McDonald'sLitrakDT", "address": "LayBy3,HentianSebelahPetalingJaya,LebuhrayaDamansaraPuchong,BandarSunway,PJS9,47600,PetalingJaya,Selangor,Malaysia", "telephone": "03-56328658", "parlimen": "P.104 Subang", "dun": "N.31 Subang Jaya", "latitude": 3.060685, "longitude": 101.614373 }, "geometry": { "type": "Point", "coordinates": [ 101.614373, 3.060685 ] } },
{ "type": "Feature", "properties": { "name": "McDonald'sBandarUtamaDT", "address": "No.5LebuhBandarUtama,PJU6,BandarUtama,47800,PetalingJaya,Selangor,Malaysia", "telephone": "03-77265099", "parlimen": "P.106 Damansara", "dun": "N.36 Bandar Utama", "latitude": 3.137382, "longitude": 101.609558 }, "geometry": { "type": "Point", "coordinates": [ 101.609558, 3.137382 ] } },
{ "type": "Feature", "properties": { "name": "McDonald'sMontKiara", "address": "No.1,BlockD,PlazaMontKiara,JalanBukitKiara,50480,BukitKiara,KualaLumpur,Malaysia", "telephone": "03-62033759", "parlimen": "P.117 Segambut", "dun": null, "latitude": 3.165745, "longitude": 101.652203 }, "geometry": { "type": "Point", "coordinates": [ 101.652203, 3.165745 ] } },
{ "type": "Feature", "properties": { "name": "McDonald'sTamanBuayaDT", "address": "Lot4570TamanBuayaMelaka,MukimBukitKatil,DaerahMelakaTengah,75320,AirKeroh,Melaka,Malaysia", "telephone": "06-2337400", "parlimen": "P.137 Hang Tuah Jaya", "dun": "N.16 Ayer Keroh", "latitude": 2.277511, "longitude": 102.298276 }, "geometry": { "type": "Point", "coordinates": [ 102.298276, 2.277511 ] } },
{ "type": "Feature", "properties": { "name": "McDonald'sSriGombak", "address": "No.1JalanSG.1/6,TamanSriGombak,68100,BatuCaves,Selangor,Malaysia", "telephone": "03-61889587", "parlimen": "P.098 Gombak", "dun": "N.17 Gombak Setia", "latitude": 3.23776, "longitude": 101.6993 }, "geometry": { "type": "Point", "coordinates": [ 101.6993, 3.23776 ] } },
{ "type": "Feature", "properties": { "name": "McDonald'sJalanTebrauDT", "address": "LotPTD68950,Batu71/2,JalanKotaTinggi,81100,JohorBahru,Johor,Malaysia", "telephone": "07-3544108", "parlimen": "P.158 Tebrau", "dun": "N.41 Puteri Wangsa", "latitude": 1.535706, "longitude": 103.784543 }, "geometry": { "type": "Point", "coordinates": [ 103.784543, 1.535706 ] } },
{ "type": "Feature", "properties": { "name": "McDonald'sAEONWangsaMaju", "address": "LotsF2.43,F2.44,F2.45,LevelF2,AeonWangsaMaju,No.6Jalan8/27A,Section5,53300,,KualaLumpur,Malaysia", "telephone": "03-41495655", "parlimen": "P.118 Setiawangsa", "dun": null, "latitude": 3.196319, "longitude": 101.743032 }, "geometry": { "type": "Point", "coordinates": [ 101.743032, 3.196319 ] } },
{ "type": "Feature", "properties": { "name": "McDonald'sPetronSeremban-KLHighwayDT", "address": "8KM,KL-SerembanHighway,57000,SeriKembangan,KualaLumpur,Malaysia", "telephone": "03-89423932", "parlimen": "P.103 Puchong", "dun": "N.28 Seri Kembangan", "latitude": 3.047047, "longitude": 101.705739 }, "geometry": { "type": "Point", "coordinates": [ 101.705739, 3.047047 ] } },
{ "type": "Feature", "properties": { "name": "McDonald'sPranginMall", "address": "Lot33-1-40,PranginMall,JalanDrLimChweeLeong,10000,GeorgeTown,PulauPinang,Malaysia", "telephone": "04-2626277", "parlimen": "P.049 Tanjong", "dun": "N.28 Komtar", "latitude": 5.414422, "longitude": 100.331057 }, "geometry": { "type": "Point", "coordinates": [ 100.331057, 5.414422 ] } },
{ "type": "Feature", "properties": { "name": "McDonald'sSunwayMentari", "address": "No.30SunwayMentari,GroundFloorDataranMentari,JalanPJS8/2,46150,PetalingJaya,Selangor,Malaysia", "telephone": "03-56117941", "parlimen": "P.105 Petaling Jaya", "dun": "N.31 Subang Jaya", "latitude": 3.074902, "longitude": 101.612113 }, "geometry": { "type": "Point", "coordinates": [ 101.612113, 3.074902 ] } },
{ "type": "Feature", "properties": { "name": "McDonald'sTelukCempedakDT", "address": "KawasanRekreasiTelukCempedak,JalanTelukCempedak,25100,Kuantan,Pahang,Malaysia", "telephone": "09-5054573", "parlimen": "P.083 Kuantan", "dun": "N.14 Teruntum", "latitude": 3.812396, "longitude": 103.37171 }, "geometry": { "type": "Point", "coordinates": [ 103.37171, 3.812396 ] } },
{ "type": "Feature", "properties": { "name": "McDonald'sTamanSriAndalas", "address": "No.2,JalanSriSarawak18,TamanSriAndalas,41200,Klang,Selangor,Malaysia", "telephone": "03-33247937", "parlimen": "P.111 Kota Raja", "dun": "N.49 Sungai Kandis", "latitude": 3.016452, "longitude": 101.442557 }, "geometry": { "type": "Point", "coordinates": [ 101.442557, 3.016452 ] } },
{ "type": "Feature", "properties": { "name": "McDonald'sSection3ShahAlamDT", "address": "No.4,JalanRU3/94,Sect3,40000,ShahAlam,Selangor,Malaysia", "telephone": "03-55139811", "parlimen": "P.108 Shah Alam", "dun": "N.40 Kota Anggerik", "latitude": 3.07445, "longitude": 101.510395 }, "geometry": { "type": "Point", "coordinates": [ 101.510395, 3.07445 ] } },
{ "type": "Feature", "properties": { "name": "McDonald'sSubangDT", "address": "No.1JalanSS15/3A,47500,SubangJaya,Selangor,Malaysia", "telephone": "015-96049975", "parlimen": "P.104 Subang", "dun": "N.31 Subang Jaya", "latitude": 3.079081, "longitude": 101.585985 }, "geometry": { "type": "Point", "coordinates": [ 101.585985, 3.079081 ] } },
{ "type": "Feature", "properties": { "name": "McDonald'sLotussPuchongDT", "address": "LotNo.7&9,GroundFloor,TescoHypermarket,JalanBandar3,PusatBandarPuchong,47100,Puchong,Selangor,Malaysia", "telephone": "03-80804917", "parlimen": "P.104 Subang", "dun": "N.30 Kinrara", "latitude": 3.035194, "longitude": 101.616172 }, "geometry": { "type": "Point", "coordinates": [ 101.616172, 3.035194 ] } },
{ "type": "Feature", "properties": { "name": "McDonald'sSenawangDT", "address": "Lot2726,JalanTamanKomersilSenawang1,TamanKomersilSenawang,70450,Senawang,NegeriSembilan,Malaysia", "telephone": "06-6788489", "parlimen": "P.131 Rembau", "dun": "N.25 Paroi", "latitude": 2.703619, "longitude": 101.985591 }, "geometry": { "type": "Point", "coordinates": [ 101.985591, 2.703619 ] } },
{ "type": "Feature", "properties": { "name": "McDonald'sAEONTamanUniversity", "address": "LG08,JuscoShoppingCenter,No.4,JalanPendidikan,TamanUniversiti,81300,Skudai,Johor,Malaysia", "telephone": "07-5506427", "parlimen": "P.162 Iskandar Puteri", "dun": "N.49 Kota Iskandar", "latitude": 1.542346, "longitude": 103.629175 }, "geometry": { "type": "Point", "coordinates": [ 103.629175, 1.542346 ] } },
{ "type": "Feature", "properties": { "name": "McDonald'sBandarSriDamansaraDT", "address": "LotPT21552&PT21553,MukimSungaiBuloh,PersiaranPerdana,52200,BandarSriDamansara,KualaLumpur,Malaysia", "telephone": "03-62741559", "parlimen": "P.106 Damansara", "dun": "N.37 Bukit Lanjan", "latitude": 3.195093, "longitude": 101.607767 }, "geometry": { "type": "Point", "coordinates": [ 101.607767, 3.195093 ] } },
{ "type": "Feature", "properties": { "name": "McDonald'sPetronasSkudaiDT", "address": "LotNo.PTD13309&PTD52136,KM11JalanSkudai,MukimTebrau,81200,JohorBahru,Johor,Malaysia", "telephone": "07-2383932", "parlimen": "P.161 Pulai", "dun": "N.47 Kempas", "latitude": 1.500357, "longitude": 103.697691 }, "geometry": { "type": "Point", "coordinates": [ 103.697691, 1.500357 ] } },
{ "type": "Feature", "properties": { "name": "McDonald'sPandanMewahDT", "address": "BangunanRestoranMcDonald's,JalanMewahUtara,68000,Ampang,KualaLumpur,Malaysia", "telephone": "03-42955046", "parlimen": "P.100 Pandan", "dun": "N.22 Teratai", "latitude": 3.128108, "longitude": 101.762843 }, "geometry": { "type": "Point", "coordinates": [ 101.762843, 3.128108 ] } },
{ "type": "Feature", "properties": { "name": "McDonald'sPuchongPermaiDT", "address": "Lot32426JalanPuchongPermai2,TamanPuchongPermai,47100,Puchong,Selangor,Malaysia", "telephone": "03-80518413", "parlimen": "P.103 Puchong", "dun": "N.29 Seri Serdang", "latitude": 3.009016, "longitude": 101.59908 }, "geometry": { "type": "Point", "coordinates": [ 101.59908, 3.009016 ] } },
{ "type": "Feature", "properties": { "name": "McDonald'sSetiawangsaDT", "address": "Lot16794&16795,Jalan37/56,TamanSetiawangsa,54200,KualaLumpur,Malaysia", "telephone": "03-42651384", "parlimen": "P.118 Setiawangsa", "dun": null, "latitude": 3.178129, "longitude": 101.743585 }, "geometry": { "type": "Point", "coordinates": [ 101.743585, 3.178129 ] } },
{ "type": "Feature", "properties": { "name": "McDonald'sJuruDT", "address": "No.1689,JalanPerusahaan,HighwayAutoCity,KawasanPerusahaan4,North-SouthHighway,JuruInterchange,MK11,SeberangPeraiTengahPerai4,13600,Perai,PulauPinang,Malaysia", "telephone": "04-5080510", "parlimen": "P.046 Batu Kawan", "dun": "N.17 Bukit Tengah", "latitude": 5.337408, "longitude": 100.431189 }, "geometry": { "type": "Point", "coordinates": [ 100.431189, 5.337408 ] } },
{ "type": "Feature", "properties": { "name": "McDonald'sBerjayaTimesSquare", "address": "Lot05-93,93A,No.1,JalanImbi,55100,KualaLumpur,Malaysia", "telephone": "03-21100154", "parlimen": "P.120 Bukit Bintang", "dun": null, "latitude": 3.142065, "longitude": 101.710819 }, "geometry": { "type": "Point", "coordinates": [ 101.710819, 3.142065 ] } },
{ "type": "Feature", "properties": { "name": "McDonald'sSriKertehDT", "address": "LotPT7132,MukimKerteh,24300,DaerahKemaman,Terengganu,Malaysia", "telephone": "09-8266920", "parlimen": "P.040 Kemaman", "dun": "N.29 Kemasik", "latitude": 4.506567, "longitude": 103.442922 }, "geometry": { "type": "Point", "coordinates": [ 103.442922, 4.506567 ] } },
{ "type": "Feature", "properties": { "name": "McDonald'sKotaDamansaraDT", "address": "LotB,JalanCecawi6/18A,KotaDamansara,47810,PetalingJaya,Selangor,Malaysia", "telephone": "03-61561180", "parlimen": "P.107 Sungai Buloh", "dun": "N.39 Kota Damansara", "latitude": 3.160465, "longitude": 101.574277 }, "geometry": { "type": "Point", "coordinates": [ 101.574277, 3.160465 ] } },
{ "type": "Feature", "properties": { "name": "McDonald'sKotaKemuning", "address": "No.1,JalanAnggerikVanilla31/94,Seksyen31,KotaKemuning,40706,ShahAlam,Selangor,Malaysia", "telephone": "03-51310287", "parlimen": "P.111 Kota Raja", "dun": "N.50 Kota Kemuning", "latitude": 3.002996, "longitude": 101.540994 }, "geometry": { "type": "Point", "coordinates": [ 101.540994, 3.002996 ] } },
{ "type": "Feature", "properties": { "name": "McDonald'sKaramunsing", "address": "LotG-21,23,25and26part,CompleKaramunsing,JalanKaramunsing,88000,KotaKinabalu,Sabah,Malaysia", "telephone": "088-255346", "parlimen": "P.172 Kota Kinabalu", "dun": "N.20 Api-Api", "latitude": 5.971027, "longitude": 116.075163 }, "geometry": { "type": "Point", "coordinates": [ 116.075163, 5.971027 ] } },
{ "type": "Feature", "properties": { "name": "McDonald'sCalteSunwayPraiDT", "address": "LotNos.5730,5731&5732,JalanJelawat,Mukim1,PusatBandarSeberangJaya,13700,Prai,PulauPinang,Malaysia", "telephone": "04-3982180", "parlimen": "P.046 Batu Kawan", "dun": "N.17 Bukit Tengah", "latitude": 5.339805, "longitude": 100.400229 }, "geometry": { "type": "Point", "coordinates": [ 100.400229, 5.339805 ] } },
{ "type": "Feature", "properties": { "name": "McDonald'sKuchaiLamaDT", "address": "1/116B,OffJalanKuchaiLama,KuchaiEntrepreneursPark,58200,KualaLumpur,Malaysia", "telephone": "03-79822180", "parlimen": "P.122 Seputeh", "dun": null, "latitude": 3.087352, "longitude": 101.690106 }, "geometry": { "type": "Point", "coordinates": [ 101.690106, 3.087352 ] } },
{ "type": "Feature", "properties": { "name": "McDonald'sTamanConnaughtDT", "address": "Lot18113,JalanCendikiawan,55100,MukimPetaling,KualaLumpur,Malaysia", "telephone": "03-91016190", "parlimen": "P.123 Cheras", "dun": null, "latitude": 3.081484, "longitude": 101.731946 }, "geometry": { "type": "Point", "coordinates": [ 101.731946, 3.081484 ] } },
{ "type": "Feature", "properties": { "name": "McDonald'sBukitTinggiDT", "address": "Lot1,PersiaranBatuNilam,BandarBaruBukitTinggi,41200,Klang,Selangor,Malaysia", "telephone": "03-33243190", "parlimen": "P.111 Kota Raja", "dun": "N.48 Sentosa", "latitude": 3.007941, "longitude": 101.432729 }, "geometry": { "type": "Point", "coordinates": [ 101.432729, 3.007941 ] } },
{ "type": "Feature", "properties": { "name": "McDonald'sDamansaraDamaiDT", "address": "Lot36327,JalanPJU10/1,DamansaraDamai,47000,SungaiBuloh,Selangor,Malaysia", "telephone": "03-61435573", "parlimen": "P.106 Damansara", "dun": "N.37 Bukit Lanjan", "latitude": 3.19494, "longitude": 101.591349 }, "geometry": { "type": "Point", "coordinates": [ 101.591349, 3.19494 ] } },
{ "type": "Feature", "properties": { "name": "McDonald'sPelangiIndahDT", "address": "PetronasPetrolStation,LotNo.105615,JalanPesona,TamanPelangiIndah,81800,JohorBahru,Johor,Malaysia", "telephone": "07-8610480", "parlimen": "P.158 Tebrau", "dun": "N.41 Puteri Wangsa", "latitude": 1.582352, "longitude": 103.800959 }, "geometry": { "type": "Point", "coordinates": [ 103.800959, 1.582352 ] } },
{ "type": "Feature", "properties": { "name": "McDonald'sRawangDT", "address": "LotPT678,JalanPusatBandar,48000,Rawang,Selangor,Malaysia", "telephone": "03-60901716", "parlimen": "P.097 Selayang", "dun": "N.14 Rawang", "latitude": 3.32015, "longitude": 101.576902 }, "geometry": { "type": "Point", "coordinates": [ 101.576902, 3.32015 ] } },
{ "type": "Feature", "properties": { "name": "McDonald'sPetronasTPMDT", "address": "PetronasPetrolStation,TechnologyParkMalaysia,SerembanKL-Highway,50700,KualaLumpur,Malaysia", "telephone": "03-90541502", "parlimen": "P.122 Seputeh", "dun": null, "latitude": 3.056652, "longitude": 101.704186 }, "geometry": { "type": "Point", "coordinates": [ 101.704186, 3.056652 ] } },
{ "type": "Feature", "properties": { "name": "McDonald'sLotussPenang", "address": "1-1-01&1-1-02,LotA3-4,JalanUdini,11700,PulauPinang,Malaysia", "telephone": "04-6579803", "parlimen": "P.051 Bukit Gelugor", "dun": "N.32 Seri Delima", "latitude": 5.377527, "longitude": 100.315257 }, "geometry": { "type": "Point", "coordinates": [ 100.315257, 5.377527 ] } },
{ "type": "Feature", "properties": { "name": "McDonald'sTheCurve", "address": "LotNoGZF-05&GZF-06,GroundFloor,TheCurve,MutiaraDamansara,47800,PetalingJaya,Selangor,Malaysia", "telephone": "03-76215834", "parlimen": "P.106 Damansara", "dun": "N.37 Bukit Lanjan", "latitude": 3.157567, "longitude": 101.612382 }, "geometry": { "type": "Point", "coordinates": [ 101.612382, 3.157567 ] } },
{ "type": "Feature", "properties": { "name": "McDonald'sEquineParkDT", "address": "LotNo.2,PersiaranEquine,TamanEquine,43300,SeriKembangan,Selangor,Malaysia", "telephone": "03-89385387", "parlimen": "P.103 Puchong", "dun": "N.29 Seri Serdang", "latitude": 2.995664, "longitude": 101.67021 }, "geometry": { "type": "Point", "coordinates": [ 101.67021, 2.995664 ] } },
{ "type": "Feature", "properties": { "name": "McDonald'sUluKelang", "address": "Lot517,276&277,Batu7,LebuhrayaLingkaranTengah2,MRR2,53300,MukimUluKelang,Selangor,Malaysia", "telephone": "03-41617604", "parlimen": "P.098 Gombak", "dun": "N.18 Hulu Kelang", "latitude": 3.202369, "longitude": 101.760348 }, "geometry": { "type": "Point", "coordinates": [ 101.760348, 3.202369 ] } },
{ "type": "Feature", "properties": { "name": "McDonald'sDesaAmanPuriDT", "address": "StesyenMinyakShell,LotNo.PT1021&PT1022,JalanAman,PersiaranPerdana,DesaAmanPuri,52100,Kepong,Selangor,Malaysia", "telephone": "03-62759170", "parlimen": "P.106 Damansara", "dun": "N.37 Bukit Lanjan", "latitude": 3.20839, "longitude": 101.614484 }, "geometry": { "type": "Point", "coordinates": [ 101.614484, 3.20839 ] } },
{ "type": "Feature", "properties": { "name": "McDonald'sTanSriYaacob", "address": "No.2,JalanJati,TamanNusaBestariJaya,81300,JohorBahru,Johor,Malaysia", "telephone": "07-5122741", "parlimen": "P.161 Pulai", "dun": "N.46 Perling", "latitude": 1.497839, "longitude": 103.655888 }, "geometry": { "type": "Point", "coordinates": [ 103.655888, 1.497839 ] } },
{ "type": "Feature", "properties": { "name": "McDonald'sAlamandaPutrajaya", "address": "LG-07,LowerGroundFloor,AlamandaShoppingComple,JalanAlamanda,Presinct1,62000,Putrajaya,KualaLumpur,Malaysia", "telephone": "03-88888641", "parlimen": "P.125 Putrajaya", "dun": null, "latitude": 2.939491, "longitude": 101.710793 }, "geometry": { "type": "Point", "coordinates": [ 101.710793, 2.939491 ] } },
{ "type": "Feature", "properties": { "name": "McDonald'sKulaiDT", "address": "Lot1150,JalanKasturi36/41,Indahpura,81000,Kulai,JohorBahru,Johor,Malaysia", "telephone": "07-6626515", "parlimen": "P.163 Kulai", "dun": "N.52 Senai", "latitude": 1.638243, "longitude": 103.625675 }, "geometry": { "type": "Point", "coordinates": [ 103.625675, 1.638243 ] } },
{ "type": "Feature", "properties": { "name": "McDonald'sAEONSeremban2", "address": "LotG43,GroundFloor,JuscoSeremban2,ShoppingCentre,112PersiaranS2,PhaseB1,Seremban2,70300,Seremban,NegeriSembilan,Malaysia", "telephone": "06-6015842", "parlimen": "P.130 Rasah", "dun": "N.21 Bukit Kepayang", "latitude": 2.701288, "longitude": 101.91168 }, "geometry": { "type": "Point", "coordinates": [ 101.91168, 2.701288 ] } },
{ "type": "Feature", "properties": { "name": "McDonald'sUTMSkudaiDT", "address": "LotPT61054,Batu11,JalanPontian,81300,Skudai,Johor,Malaysia", "telephone": "07-5621047", "parlimen": "P.163 Kulai", "dun": "N.52 Senai", "latitude": 1.550878, "longitude": 103.650721 }, "geometry": { "type": "Point", "coordinates": [ 103.650721, 1.550878 ] } },
{ "type": "Feature", "properties": { "name": "McDonald'sNKVEDT", "address": "Lot15385SeksyenPJU1A,KM15.4ArahUtara,LebuhBaruLembahKelang,40150,PetalingJaya,Selangor,Malaysia", "telephone": "03-78028664", "parlimen": "P.105 Petaling Jaya", "dun": "N.32 Seri Setia", "latitude": 3.119409, "longitude": 101.59301 }, "geometry": { "type": "Point", "coordinates": [ 101.59301, 3.119409 ] } },
{ "type": "Feature", "properties": { "name": "McDonald'sPetronasAmpangDT", "address": "D/APetronasServisStesen,JalanKolamAyerLama,Lot36904(PT27423),TamanDato'AhmadRazali,68000,Ampang,Selangor,Malaysia", "telephone": "03-42651703", "parlimen": "P.099 Ampang", "dun": "N.19 Bukit Antarabangsa", "latitude": 3.160062, "longitude": 101.754149 }, "geometry": { "type": "Point", "coordinates": [ 101.754149, 3.160062 ] } },
{ "type": "Feature", "properties": { "name": "McDonald'sDataranPahlawan", "address": "LotA02,DataranPahlawanMelakaMegamall,JalanMerdeka,75000,Melaka,Malaysia", "telephone": "06-2810679", "parlimen": "P.138 Kota Melaka", "dun": "N.22 Bandar Hilir", "latitude": 2.190503, "longitude": 102.248951 }, "geometry": { "type": "Point", "coordinates": [ 102.248951, 2.190503 ] } },
{ "type": "Feature", "properties": { "name": "McDonald'sTamanSuteraDT", "address": "LotPT135893,JalanRodaUtama,81300,Skudai,JohorBahru,Johor,Malaysia", "telephone": "07-5565121", "parlimen": "P.162 Iskandar Puteri", "dun": "N.48 Skudai", "latitude": 1.523079, "longitude": 103.678383 }, "geometry": { "type": "Point", "coordinates": [ 103.678383, 1.523079 ] } },
{ "type": "Feature", "properties": { "name": "McDonald'sQueensbayMall", "address": "LG-73,LowerGroundFloor,QueensbayMall,100,PersiaranBayanIndah,11900,PulauPinang,Malaysia", "telephone": "04-6411559", "parlimen": "P.052 Bayan Baru", "dun": "N.36 Pantai Jerejak", "latitude": 5.332927, "longitude": 100.306606 }, "geometry": { "type": "Point", "coordinates": [ 100.306606, 5.332927 ] } },
{ "type": "Feature", "properties": { "name": "McDonald'sBandarTunHusseinOnnDT", "address": "LotPT18150&PT18151,JalanSuasana2/2,BandarTunHusseinOnn,43200,Cheras,Selangor,Malaysia", "telephone": "03-90813046", "parlimen": "P.102 Bangi", "dun": "N.27 Balakong", "latitude": 3.050159, "longitude": 101.765296 }, "geometry": { "type": "Point", "coordinates": [ 101.765296, 3.050159 ] } },
{ "type": "Feature", "properties": { "name": "McDonald'sJuscoBalakong", "address": "LotG51,GroundFloor,JuscoBalakongShoppingCentre,43200,Balakong,Selangor,Malaysia", "telephone": "03-90753905", "parlimen": "P.102 Bangi", "dun": "N.27 Balakong", "latitude": 3.033386, "longitude": 101.764829 }, "geometry": { "type": "Point", "coordinates": [ 101.764829, 3.033386 ] } },
{ "type": "Feature", "properties": { "name": "McDonald'sSriManjungDT", "address": "Lot114,JalanLumut,Setiawangsa,32010,SriManjung,Perak,Malaysia", "telephone": "05-6887155", "parlimen": "P.074 Lumut", "dun": "N.51 Pasir Panjang", "latitude": 4.199318, "longitude": 100.655218 }, "geometry": { "type": "Point", "coordinates": [ 100.655218, 4.199318 ] } },
{ "type": "Feature", "properties": { "name": "McDonald'sJalanGopengDT", "address": "PN684,MukimUluKinta,JalanGopeng,31350,Ipoh,Perak,Malaysia", "telephone": "05-3111916", "parlimen": "P.071 Gopeng", "dun": "N.45 Simpang Pulai", "latitude": 4.57256, "longitude": 101.112687 }, "geometry": { "type": "Point", "coordinates": [ 101.112687, 4.57256 ] } },
{ "type": "Feature", "properties": { "name": "McDonald'sSection22ShahAlamDT", "address": "No.2,Jalan22/6,Seksyen22,40300,ShahAlam,Selangor,Malaysia", "telephone": "03-51037743", "parlimen": "P.108 Shah Alam", "dun": "N.41 Batu Tiga", "latitude": 3.040568, "longitude": 101.547503 }, "geometry": { "type": "Point", "coordinates": [ 101.547503, 3.040568 ] } },
{ "type": "Feature", "properties": { "name": "McDonald'sPetronasMelatiDT", "address": "Lot3644HS(D)70344&,LotPT8081HS(D)107241,TamanMelati,MukimSetapak,53100,KualaLumpur,Malaysia", "telephone": "03-41473107", "parlimen": "P.116 Wangsa Maju", "dun": null, "latitude": 3.225019, "longitude": 101.728649 }, "geometry": { "type": "Point", "coordinates": [ 101.728649, 3.225019 ] } },
{ "type": "Feature", "properties": { "name": "McDonald'sBantingDT", "address": "No.2JalanCemerlang4,42700Banting,Selangor,Malaysia", "telephone": "03-31813188", "parlimen": "P.112 Kuala Langat", "dun": "N.52 Banting", "latitude": 2.812972, "longitude": 101.50808 }, "geometry": { "type": "Point", "coordinates": [ 101.50808, 2.812972 ] } },
{ "type": "Feature", "properties": { "name": "McDonald'sAEONBukitTinggi", "address": "AEONBukitTinggiShoppingCentre,No.1,PersiaranBatuNilam1/KS6,BandarBukitTinggi2,41200,Klang,Selangor,Malaysia", "telephone": "03-33188457", "parlimen": "P.111 Kota Raja", "dun": "N.48 Sentosa", "latitude": 2.994316, "longitude": 101.444921 }, "geometry": { "type": "Point", "coordinates": [ 101.444921, 2.994316 ] } },
{ "type": "Feature", "properties": { "name": "McDonald'sCalteFarlimDT", "address": "CalteFarlimPetrolstation,LotNo.9435,Mukim13,NorthEastDistrict,11900,PulauPinang,Malaysia", "telephone": "012-7877219", "parlimen": "P.051 Bukit Gelugor", "dun": "N.34 Paya Terubong", "latitude": 5.387483, "longitude": 100.276876 }, "geometry": { "type": "Point", "coordinates": [ 100.276876, 5.387483 ] } },
{ "type": "Feature", "properties": { "name": "McDonald'sMelakaSentral", "address": "PlazaMelakaSentral,LotNo.59,ZoneD,GroundFloor,75000,Melaka,Malaysia", "telephone": "06-2841224", "parlimen": "P.137 Hang Tuah Jaya", "dun": "N.15 Pengkalan Batu", "latitude": 2.221022, "longitude": 102.250072 }, "geometry": { "type": "Point", "coordinates": [ 102.250072, 2.221022 ] } },
{ "type": "Feature", "properties": { "name": "McDonald's1BorneoMall", "address": "ConcourseFloor,1BorneoMall,LotNo.C215-C218&PartofD219,88871,KotaKinabalu,Sabah,Malaysia", "telephone": "088-447568", "parlimen": "P.171 Sepanggar", "dun": "N.16 Karambunai", "latitude": 6.035481, "longitude": 116.128903 }, "geometry": { "type": "Point", "coordinates": [ 116.128903, 6.035481 ] } },
{ "type": "Feature", "properties": { "name": "McDonald'sRahmanPutraDT", "address": "No.4,Lot33428,JalanBRP3/3,BukitRahmanPutra,SeksyenU20,40160,ShahAlam,Selangor,Malaysia", "telephone": "03-61417586", "parlimen": "P.107 Sungai Buloh", "dun": "N.38 Paya Jaras", "latitude": 3.224623, "longitude": 101.556665 }, "geometry": { "type": "Point", "coordinates": [ 101.556665, 3.224623 ] } },
{ "type": "Feature", "properties": { "name": "McDonald'sShellJalanCherasDT", "address": "LotPT7430,HSD111856,KM5.5,JalanCheras,56000,Cheras,KualaLumpur,Malaysia", "telephone": "03-91331724", "parlimen": "P.123 Cheras", "dun": null, "latitude": 3.104739, "longitude": 101.732853 }, "geometry": { "type": "Point", "coordinates": [ 101.732853, 3.104739 ] } },
{ "type": "Feature", "properties": { "name": "McDonald'sKKAirport", "address": "LotNo.L3-L14,PublicConcourse,DepartureLevelTerminal1,KotaKinabaluInternationalAirport,88100,KotaKinabalu,Sabah,Malaysia", "telephone": "088-413791", "parlimen": "P.173 Putatan", "dun": "N.22 Tanjong Aru", "latitude": 5.923602, "longitude": 110.05062 }, "geometry": { "type": "Point", "coordinates": [ 110.05062, 5.923602 ] } },
{ "type": "Feature", "properties": { "name": "McDonald'sLabuanAirport", "address": "LotNo.L1L04-L1L06,LabuanAirport,ArrivalHall1,TerminalBuilding,80569,WPLabuan,Malaysia", "telephone": "087-428890", "parlimen": "P.166 Labuan", "dun": null, "latitude": 5.29399, "longitude": 115.249723 }, "geometry": { "type": "Point", "coordinates": [ 115.249723, 5.29399 ] } },
{ "type": "Feature", "properties": { "name": "McDonald'sSriAlamMasaiDT", "address": "LotPTD174172,JalanSeriAlam,BandarSeriAlam,81750,Masai,Johor,Malaysia", "telephone": "07-2564463", "parlimen": "P.159 Pasir Gudang", "dun": "N.42 Johor Jaya", "latitude": 1.496185, "longitude": 103.870776 }, "geometry": { "type": "Point", "coordinates": [ 103.870776, 1.496185 ] } },
{ "type": "Feature", "properties": { "name": "McDonald'sBandarBaruBangiDT", "address": "PTD68518,PersiaranBangi,43650,BandarBaruBangi,Selangor,Malaysia", "telephone": "03-89221553", "parlimen": "P.102 Bangi", "dun": "N.26 Sungai Ramal", "latitude": 2.961851, "longitude": 101.758106 }, "geometry": { "type": "Point", "coordinates": [ 101.758106, 2.961851 ] } },
{ "type": "Feature", "properties": { "name": "McDonald'sBatuPahatDT", "address": "LotPTD48029,TamanFloraUtama,JalanTanSweeHoe,83000,BatuPahat,Johor,Malaysia", "telephone": "07-4339286", "parlimen": "P.149 Sri Gading", "dun": "N.21 Parit Yaani", "latitude": 1.865327, "longitude": 102.947235 }, "geometry": { "type": "Point", "coordinates": [ 102.947235, 1.865327 ] } },
{ "type": "Feature", "properties": { "name": "McDonald'sTelukIntanDT", "address": "Lot5017McDonald's,JalanChangkatJong,36000,TelukIntan,Perak,Malaysia", "telephone": "05-6211912", "parlimen": "P.076 Teluk Intan", "dun": "N.55 Pasir Bedamar", "latitude": 4.017385, "longitude": 101.027503 }, "geometry": { "type": "Point", "coordinates": [ 101.027503, 4.017385 ] } },
{ "type": "Feature", "properties": { "name": "McDonald'sTaipingSentral", "address": "LotG-21andG-22,GroundFloor,TaipingSentral,No36,JalanIstanaLarut,34000,Taiping,Perak,Malaysia", "telephone": "05-8058167", "parlimen": "P.060 Taiping", "dun": "N.17 Pokok Assam", "latitude": 4.865729, "longitude": 100.731111 }, "geometry": { "type": "Point", "coordinates": [ 100.731111, 4.865729 ] } },
{ "type": "Feature", "properties": { "name": "McDonald'sKlangSentral", "address": "No.2,JalanKlangSentral/KU05,BukitRaja,Meru,41050,Klang,Selangor,Malaysia", "telephone": "03-33583012", "parlimen": "P.109 Kapar", "dun": "N.42 Meru", "latitude": 3.110278, "longitude": 101.441132 }, "geometry": { "type": "Point", "coordinates": [ 101.441132, 3.110278 ] } },
{ "type": "Feature", "properties": { "name": "McDonald'sPetronasKLIADT", "address": "LotPT3906,JalanTerminalKLIA(Outbound),64000,Sepang,Selangor,Malaysia", "telephone": "016-2232827", "parlimen": "P.113 Sepang", "dun": "N.56 Sungai Pelek", "latitude": 2.764666, "longitude": 101.683261 }, "geometry": { "type": "Point", "coordinates": [ 101.683261, 2.764666 ] } },
{ "type": "Feature", "properties": { "name": "McDonald'sPrimaSaujanaKajangDT", "address": "LotPT52317,PrimaSaujana,MukimKajang,43000,Kajang,Selangor,Malaysia", "telephone": "03-87416420", "parlimen": "P.101 Hulu Langat", "dun": "N.24 Semenyih", "latitude": 3.007491, "longitude": 101.804351 }, "geometry": { "type": "Point", "coordinates": [ 101.804351, 3.007491 ] } },
{ "type": "Feature", "properties": { "name": "McDonald'sMelakaMallDT", "address": "SebahagianLotPT3368,LebohAyehKeroh,MukimBukitBaru,75450,Melaka,Malaysia", "telephone": "06-3170712", "parlimen": "P.137 Hang Tuah Jaya", "dun": "N.17 Bukit Katil", "latitude": 2.231665, "longitude": 102.281344 }, "geometry": { "type": "Point", "coordinates": [ 102.281344, 2.231665 ] } },
{ "type": "Feature", "properties": { "name": "McDonald'sDataranPahlawan2", "address": "FG-15&FG-16,GroundFloor,DataranPahlawanMelakaMegamall,JalanMerdeka,75000,Melaka,Malaysia", "telephone": "06-2866079", "parlimen": "P.138 Kota Melaka", "dun": "N.22 Bandar Hilir", "latitude": 2.190281, "longitude": 102.252978 }, "geometry": { "type": "Point", "coordinates": [ 102.252978, 2.190281 ] } },
{ "type": "Feature", "properties": { "name": "McDonald'sKBMall", "address": "LotNo.29A&30,GroundFloor,KBMall,JalanHamzah,15050,KotaBharu,Kelantan,Malaysia", "telephone": "09-7419787", "parlimen": "P.021 Kota Bharu", "dun": "N.09 Kota Lama", "latitude": 6.117193, "longitude": 102.240196 }, "geometry": { "type": "Point", "coordinates": [ 102.240196, 6.117193 ] } },
{ "type": "Feature", "properties": { "name": "McDonald'sPuchongGatewayDT", "address": "LotNo.48733,MukimPetalingLDPPuchongGateway,47100,Puchong,Selangor,Malaysia", "telephone": "03-89586508", "parlimen": "P.103 Puchong", "dun": "N.29 Seri Serdang", "latitude": 2.981733, "longitude": 101.648354 }, "geometry": { "type": "Point", "coordinates": [ 101.648354, 2.981733 ] } },
{ "type": "Feature", "properties": { "name": "McDonald'sBandarPerdaDT", "address": "PT860,HS(D)1217,BandarPerda,Mukim6,DaerahSeberangPraiTengah,14000,PulauPinang,Malaysia", "telephone": "04-3830675", "parlimen": "P.044 Permatang Pauh", "dun": "N.10 Seberang Jaya", "latitude": 5.36814, "longitude": 100.424111 }, "geometry": { "type": "Point", "coordinates": [ 100.424111, 5.36814 ] } },
{ "type": "Feature", "properties": { "name": "McDonald'sPasirGudangDT", "address": "LotPT69990,HSD124966,JalanBandarMukimPlentong,BandarBaruPasirGudang,81700PasirGudang,Johor,Malaysia", "telephone": "07-2526102", "parlimen": "P.159 Pasir Gudang", "dun": "N.43 Permas", "latitude": 1.470203, "longitude": 103.905013 }, "geometry": { "type": "Point", "coordinates": [ 103.905013, 1.470203 ] } },
{ "type": "Feature", "properties": { "name": "McDonald'sKotaTinggi", "address": "BlockA,Lot2Aras1,Aras2&Lot1Aras1,JalanNiaga11,MukimKotaTinggi,DaerahKotaTinggi,81900,KotaTinggi,Johor,Malaysia", "telephone": "07-8828825", "parlimen": "P.156 Kota Tinggi", "dun": "N.37 Johor Lama", "latitude": 1.729912, "longitude": 103.902428 }, "geometry": { "type": "Point", "coordinates": [ 103.902428, 1.729912 ] } },
{ "type": "Feature", "properties": { "name": "McDonald'sSunwayCityIpohDT", "address": "Lot303521,SunwayCity,MukimHuluKinta,DaerahKinta,31150UluKinta,Ipoh,Perak,Malaysia", "telephone": "05-5452194", "parlimen": "P.063 Tambun", "dun": "N.24 Hulu Kinta", "latitude": 4.624887, "longitude": 101.151631 }, "geometry": { "type": "Point", "coordinates": [ 101.151631, 4.624887 ] } },
{ "type": "Feature", "properties": { "name": "McDonald'sPutraNilaiDT", "address": "PT1134,PersiaranPusatBandar,71800Nilai,NegeriSembilan,Malaysia", "telephone": "06-7971888", "parlimen": "P.128 Seremban", "dun": "N.10 Nilai", "latitude": 2.822465, "longitude": 101.793611 }, "geometry": { "type": "Point", "coordinates": [ 101.793611, 2.822465 ] } },
{ "type": "Feature", "properties": { "name": "McDonald'sPetronasMRR2KepongDT", "address": "Lot25747,LebuhRayaSelayang,KepongLebuhRaya,LingkaranTengah2(MRR2),52100,Kepong,KualaLumpur,Malaysia", "telephone": "03-62596498", "parlimen": "P.115 Batu", "dun": null, "latitude": 3.229265, "longitude": 101.65503 }, "geometry": { "type": "Point", "coordinates": [ 101.65503, 3.229265 ] } },
{ "type": "Feature", "properties": { "name": "McDonald'sBukitIndahDT", "address": "No.57,JalanIndah15/2,BukitIndah,81200,JohorBahru,Johor,Malaysia", "telephone": "07-2385535", "parlimen": "P.161 Pulai", "dun": "N.46 Perling", "latitude": 1.48168, "longitude": 103.65776 }, "geometry": { "type": "Point", "coordinates": [ 103.65776, 1.48168 ] } },
{ "type": "Feature", "properties": { "name": "McDonald'sPengkalanDT", "address": "No.686,JalanPasirPuteh,PengkalanPegoh,31500,Ipoh,Perak,Malaysia", "telephone": "05-3203764", "parlimen": "P.064 Ipoh Timor", "dun": "N.26 Tebing Tinggi", "latitude": 4.542201, "longitude": 101.07017 }, "geometry": { "type": "Point", "coordinates": [ 101.07017, 4.542201 ] } },
{ "type": "Feature", "properties": { "name": "McDonald'sPuncakAlamDT", "address": "Lot10655,JalanUtama,BandarPuncakAlam,45010,KualaSelangor,Selangor,Malaysia", "telephone": "03-33924370", "parlimen": "P.107 Sungai Buloh", "dun": "N.38 Paya Jaras", "latitude": 3.221722, "longitude": 101.447869 }, "geometry": { "type": "Point", "coordinates": [ 101.447869, 3.221722 ] } },
{ "type": "Feature", "properties": { "name": "McDonald'sKamparDT", "address": "SebahagianLotNo.126028,JalanBatuSinar,TamanBandarBaruKampar,31900,Kampar,Perak,Malaysia", "telephone": "05-4658626", "parlimen": "P.070 Kampar", "dun": "N.42 Keranji", "latitude": 4.326304, "longitude": 101.144709 }, "geometry": { "type": "Point", "coordinates": [ 101.144709, 4.326304 ] } },
{ "type": "Feature", "properties": { "name": "McDonald's1Utama", "address": "LotLG221,LowerGroundFloorPromenade,1UtamaShoppingCentre,PersiaranBandarUtama,BandarUtama,47800,PetalingJaya,Selangor,Malaysia", "telephone": "03-77262361", "parlimen": "P.106 Damansara", "dun": "N.36 Bandar Utama", "latitude": 3.150325, "longitude": 101.615344 }, "geometry": { "type": "Point", "coordinates": [ 101.615344, 3.150325 ] } },
{ "type": "Feature", "properties": { "name": "McDonald'sSibu", "address": "ShopLotNo.2(Ground&1stFloor)andShopLotNo.4(GroundFloor),CausewayRoad,96007,Sibu,Sarawak,Malaysia", "telephone": "084-335522", "parlimen": "P.211 Lanang", "dun": "N.51 Bukit Assek", "latitude": 2.290759, "longitude": 111.826063 }, "geometry": { "type": "Point", "coordinates": [ 111.826063, 2.290759 ] } },
{ "type": "Feature", "properties": { "name": "McDonald'sMiriPermyjaya", "address": "Lot5993,Block11,K.B.L.D.DesaIndah3,JalanTudan,BandarBaruPermyjaya,98000,Miri,Sarawak,Malaysia", "telephone": "085-641587", "parlimen": "P.219 Miri", "dun": "N.75 Senadin", "latitude": 4.471653, "longitude": 114.042988 }, "geometry": { "type": "Point", "coordinates": [ 114.042988, 4.471653 ] } },
{ "type": "Feature", "properties": { "name": "McDonald'sDungun", "address": "GroundFloor&1stFloor,JalanBaruPakSabah,MukimKualaDungun,23000,Dungun,Terengganu,Malaysia", "telephone": "09-8441334", "parlimen": "P.039 Dungun", "dun": "N.27 Sura", "latitude": 4.755274, "longitude": 103.414494 }, "geometry": { "type": "Point", "coordinates": [ 103.414494, 4.755274 ] } },
{ "type": "Feature", "properties": { "name": "McDonald'sKulimDT", "address": "No.28,JalanKLC1,KulimLandmarkCentral,09000Kedah,Malaysia", "telephone": "04-4903063", "parlimen": "P.017 Padang Serai", "dun": "N.34 Lunas", "latitude": 5.383114, "longitude": 100.545805 }, "geometry": { "type": "Point", "coordinates": [ 100.545805, 5.383114 ] } },
{ "type": "Feature", "properties": { "name": "McDonald'sUluTiramDT", "address": "SebahagianLotPTD19827,MukimTebrau,UluTiram,81800,JohorBahru,Johor,Malaysia", "telephone": "07-8633429", "parlimen": "P.158 Tebrau", "dun": "N.40 Tiram", "latitude": 1.594882, "longitude": 103.82003 }, "geometry": { "type": "Point", "coordinates": [ 103.82003, 1.594882 ] } },
{ "type": "Feature", "properties": { "name": "McDonald'sCalteBandarPuteriKlangDT", "address": "Lot133826,LebuhSanggul1/KS7,BandarPuteri,41200,Klang,Selangor,Malaysia", "telephone": "03-51623985", "parlimen": "P.111 Kota Raja", "dun": "N.49 Sungai Kandis", "latitude": 2.988257, "longitude": 101.465999 }, "geometry": { "type": "Point", "coordinates": [ 101.465999, 2.988257 ] } },
{ "type": "Feature", "properties": { "name": "McDonald'sPetronasBatuFerringhiDT", "address": "Lot697&Lot764,JalanBatuFerringi,Seksyen2,BandarBaruFerringi,DaerahTimurLaut,11100,PulauPinang,Malaysia", "telephone": "04-8812516", "parlimen": "P.048 Bukit Bendera", "dun": "N.22 Tanjong Bunga", "latitude": 5.475314, "longitude": 100.251541 }, "geometry": { "type": "Point", "coordinates": [ 100.251541, 5.475314 ] } },
{ "type": "Feature", "properties": { "name": "McDonald'sKualaSelangorDT", "address": "Lot640,TelukPiah,MukimKualaSelangor,45000,KualaSelangor,Selangor,Malaysia", "telephone": "03-32811285", "parlimen": "P.096 Kuala Selangor", "dun": "N.10 Bukit Melawati", "latitude": 3.330028, "longitude": 101.258749 }, "geometry": { "type": "Point", "coordinates": [ 101.258749, 3.330028 ] } },
{ "type": "Feature", "properties": { "name": "McDonald'sMutiaraDamansaraDT", "address": "Lot69683,JalanPJU7/5,MutiaraDamansara,MukimSungaiBuloh,DaerahPetaling,45000,Selangor,Malaysia", "telephone": "03-77242782", "parlimen": "P.106 Damansara", "dun": "N.37 Bukit Lanjan", "latitude": 3.158188, "longitude": 101.613659 }, "geometry": { "type": "Point", "coordinates": [ 101.613659, 3.158188 ] } },
{ "type": "Feature", "properties": { "name": "McDonald'sSemenyihDT", "address": "Lot1809,Batu22,JalanBeranang,MukimSemenyih,DaerahHuluLangat,43500,Selangor", "telephone": "03-87230592", "parlimen": "P.101 Hulu Langat", "dun": "N.24 Semenyih", "latitude": 2.936787, "longitude": 101.8526 }, "geometry": { "type": "Point", "coordinates": [ 101.8526, 2.936787 ] } },
{ "type": "Feature", "properties": { "name": "McDonald'sParitRajaDT", "address": "Lot20398HS(D)59406,MKSriGading,83300,BatuPahat,Johor,Malaysia", "telephone": "07-4535286", "parlimen": "P.149 Sri Gading", "dun": "N.22 Parit Raja", "latitude": 1.848982, "longitude": 103.075914 }, "geometry": { "type": "Point", "coordinates": [ 103.075914, 1.848982 ] } },
{ "type": "Feature", "properties": { "name": "McDonald'sLotussTanjungPinang", "address": "LotG10,11,12,13&14,TescoTanjungPinang,No1,JalanSeriTanjungPinang,10470,TanjungTokong,PulauPinang,Malaysia", "telephone": "04-8903551", "parlimen": "P.048 Bukit Bendera", "dun": "N.22 Tanjong Bunga", "latitude": 5.459071, "longitude": 100.30883 }, "geometry": { "type": "Point", "coordinates": [ 100.30883, 5.459071 ] } },
{ "type": "Feature", "properties": { "name": "McDonald'sTescoSeremban2", "address": "No1,JalanHaruan2,70300,Seremban,NegeriSembilan,Malaysia", "telephone": "06-6315613", "parlimen": "P.130 Rasah", "dun": "N.21 Bukit Kepayang", "latitude": 2.711553, "longitude": 101.91543 }, "geometry": { "type": "Point", "coordinates": [ 101.91543, 2.711553 ] } },
{ "type": "Feature", "properties": { "name": "McDonald'sMountAustinDT", "address": "Lot110034,JalanAustinHeights3,TamanMountAustin,MukimTebrau,81100,JohorBahru,Johor,Malaysia", "telephone": "07-3531918", "parlimen": "P.158 Tebrau", "dun": "N.41 Puteri Wangsa", "latitude": 1.557757, "longitude": 103.781721 }, "geometry": { "type": "Point", "coordinates": [ 103.781721, 1.557757 ] } },
{ "type": "Feature", "properties": { "name": "McDonald'sSetiaTropikaDT", "address": "Lot141190,JalanSetiaTropika1/21,TamanSetiaTropika,MukimTebrau,81100,JohorBahru,Johor,Malaysia", "telephone": "07-2342618", "parlimen": "P.158 Tebrau", "dun": "N.41 Puteri Wangsa", "latitude": 1.548749, "longitude": 103.715152 }, "geometry": { "type": "Point", "coordinates": [ 103.715152, 1.548749 ] } },
{ "type": "Feature", "properties": { "name": "McDonald'sBandarUtamaCheng", "address": "No.75,JalanInang3,TamanPayaRumputUtama,76450,BandarCheng,Melaka,Malaysia", "telephone": "06-3122476", "parlimen": "P.136 Tangga Batu", "dun": "N.13 Paya Rumput", "latitude": 2.280646, "longitude": 102.215438 }, "geometry": { "type": "Point", "coordinates": [ 102.215438, 2.280646 ] } },
{ "type": "Feature", "properties": { "name": "McDonald'sBatuBerendamDT", "address": "LotPT13668,MukimBatuBerendam,MelakaTengah,75350,HangTuahJaya,Melaka,Malaysia", "telephone": "06-3173461", "parlimen": "P.138 Kota Melaka", "dun": "N.19 Kesidang", "latitude": 2.251997, "longitude": 102.2459 }, "geometry": { "type": "Point", "coordinates": [ 102.2459, 2.251997 ] } },
{ "type": "Feature", "properties": { "name": "McDonald'sKotaWarisanDT", "address": "PintasanDengkilByPass(B29),43900,Sepang,Selangor,Malaysia", "telephone": "03-87068788", "parlimen": "P.113 Sepang", "dun": "N.55 Dengkil", "latitude": 2.817261, "longitude": 101.69428 }, "geometry": { "type": "Point", "coordinates": [ 101.69428, 2.817261 ] } },
{ "type": "Feature", "properties": { "name": "McDonald'sCittaMall", "address": "G-43,CittaMall,No1,JalanPJU1A/48,PJU1A,AraDamansara,47301,PetalingJaya,Selangor,Malaysia", "telephone": "03-78316952", "parlimen": "P.105 Petaling Jaya", "dun": "N.32 Seri Setia", "latitude": 3.11277, "longitude": 101.579786 }, "geometry": { "type": "Point", "coordinates": [ 101.579786, 3.11277 ] } },
{ "type": "Feature", "properties": { "name": "McDonald'sPetronasMiriDT", "address": "Lot1050(A),JalanBulanSabit,Block7,MCLD,98000,Miri,Sarawak,Malaysia", "telephone": "085-422117", "parlimen": "P.219 Miri", "dun": "N.74 Pujut", "latitude": 4.412187, "longitude": 114.003077 }, "geometry": { "type": "Point", "coordinates": [ 114.003077, 4.412187 ] } },
{ "type": "Feature", "properties": { "name": "McDonald'sSimpangDT", "address": "No.97JalanBesar,JalanSimpang,34000,Taiping,Perak,Malaysia", "telephone": "05-8472324", "parlimen": "P.060 Taiping", "dun": "N.18 Aulong", "latitude": 4.822039, "longitude": 100.707831 }, "geometry": { "type": "Point", "coordinates": [ 100.707831, 4.822039 ] } },
{ "type": "Feature", "properties": { "name": "McDonald'sJalanKualaKangsarDT", "address": "MukimHuluKinta,DaerahKinta,JalanKualaKangsar,31400,Ipoh,Perak,Malaysia", "telephone": "05-5250562", "parlimen": "P.065 Ipoh Barat", "dun": "N.29 Kepayang", "latitude": 4.633787, "longitude": 101.087556 }, "geometry": { "type": "Point", "coordinates": [ 101.087556, 4.633787 ] } },
{ "type": "Feature", "properties": { "name": "McDonald'sSandakanDT", "address": "SebahagianCL075477584,Batu6,JalanUtara,90000,Sandakan,Sabah,Malaysia", "telephone": "089-235265", "parlimen": "P.185 Batu Sapi", "dun": "N.53 Sekong", "latitude": 5.863514, "longitude": 118.05596 }, "geometry": { "type": "Point", "coordinates": [ 118.05596, 5.863514 ] } },
{ "type": "Feature", "properties": { "name": "McDonald'sPDWaterfrontDT", "address": "No.27,JalanPersiaran,PDWaterfront,71010,PortDickson,NegeriSembilan,Malaysia", "telephone": "06-6463188", "parlimen": "P.132 Port Dickson", "dun": "N.33 Sri Tanjung", "latitude": 2.521093, "longitude": 101.800038 }, "geometry": { "type": "Point", "coordinates": [ 101.800038, 2.521093 ] } },
{ "type": "Feature", "properties": { "name": "McDonald'sJlnApasTawauDT", "address": "CL.105509868AtMile4,JalanApas,91000,Tawau,Sabah,Malaysia", "telephone": "089-913322", "parlimen": "P.190 Tawau", "dun": "N.69 Sri Tanjong", "latitude": 4.251907, "longitude": 117.920815 }, "geometry": { "type": "Point", "coordinates": [ 117.920815, 4.251907 ] } },
{ "type": "Feature", "properties": { "name": "McDonald'sM2Mall", "address": "Lot1,Level1,BUSANA,MenaraMARA,No.232,JalanTuankuAbdulRahman,50100,KualaLumpur,Malaysia", "telephone": "03-22028034", "parlimen": "P.120 Bukit Bintang", "dun": null, "latitude": 3.157924, "longitude": 101.695732 }, "geometry": { "type": "Point", "coordinates": [ 101.695732, 3.157924 ] } },
{ "type": "Feature", "properties": { "name": "McDonald'sShellJalanSulamanDT", "address": "OffJalanSulamanHighway,88000,KotaKinabalu,Sabah,Malaysia", "telephone": "088-387502", "parlimen": "P.171 Sepanggar", "dun": "N.16 Karambunai", "latitude": 6.018261, "longitude": 116.114743 }, "geometry": { "type": "Point", "coordinates": [ 116.114743, 6.018261 ] } },
{ "type": "Feature", "properties": { "name": "McDonald'sSetiaCityMall", "address": "UnitNo.LG-40,SetiaCityMall,No.7,PersiaranSetiaDagang,BandarSetiaAlam,SeksyenU13,40170,ShahAlam,Selangor,Malaysia", "telephone": "03-33585287", "parlimen": "P.108 Shah Alam", "dun": "N.40 Kota Anggerik", "latitude": 3.109525, "longitude": 101.461522 }, "geometry": { "type": "Point", "coordinates": [ 101.461522, 3.109525 ] } },
{ "type": "Feature", "properties": { "name": "McDonald'sPontianDT", "address": "Lot13182,JalanDelima,MukimBandarPontianKecil,82000,Pontian,Johor,Malaysia", "telephone": "07-6883200", "parlimen": "P.164 Pontian", "dun": "N.54 Pulai Sebatang", "latitude": 1.478419, "longitude": 103.392124 }, "geometry": { "type": "Point", "coordinates": [ 103.392124, 1.478419 ] } },
{ "type": "Feature", "properties": { "name": "McDonald'sKlebangDT", "address": "PT238632,PersiaranKlebangPutra,TamanKlebangPutra,31200Chemor,Perak,Malaysia", "telephone": "05-2913269", "parlimen": "P.063 Tambun", "dun": "N.23 Manjoi", "latitude": 4.685182, "longitude": 101.120584 }, "geometry": { "type": "Point", "coordinates": [ 101.120584, 4.685182 ] } },
{ "type": "Feature", "properties": { "name": "McDonald'sPersiaranRajaMudaMusaDT", "address": "LotPT3358,Seksyen31,PersiaranRajaMudaMusa(KS05),BandarKlang,DaerahKlang,41200,Klang,Selangor,Malaysia", "telephone": "03-33701539", "parlimen": "P.110 Klang", "dun": "N.47 Pandamaran", "latitude": 3.026235, "longitude": 101.423601 }, "geometry": { "type": "Point", "coordinates": [ 101.423601, 3.026235 ] } },
{ "type": "Feature", "properties": { "name": "McDonald'sUnderwaterWorldLangkawi", "address": "PantaiCenang,07000,Langkawi,Kedah,Malaysia", "telephone": "04-9551565", "parlimen": "P.004 Langkawi", "dun": "N.02 Kuah", "latitude": 6.286845, "longitude": 99.72959 }, "geometry": { "type": "Point", "coordinates": [ 99.72959, 6.286845 ] } },
{ "type": "Feature", "properties": { "name": "McDonald'sInderaMahkotaDT", "address": "LotPT96403,BandarInderaMahkota,MukimKualaKuantan,25200,Kuantan,Pahang,Malaysia", "telephone": "09-5737552", "parlimen": "P.082 Indera Mahkota", "dun": "N.13 Semambu", "latitude": 3.825664, "longitude": 103.304488 }, "geometry": { "type": "Point", "coordinates": [ 103.304488, 3.825664 ] } },
{ "type": "Feature", "properties": { "name": "McDonald'sSeriIskandarDT", "address": "Plot531,BandarSeriIskandar,MukimBota,32600,PerakTengah,Perak,Malaysia", "telephone": "05-3713275", "parlimen": "P.069 Parit", "dun": "N.40 Bota", "latitude": 4.357689, "longitude": 100.969653 }, "geometry": { "type": "Point", "coordinates": [ 100.969653, 4.357689 ] } },
{ "type": "Feature", "properties": { "name": "McDonald'sMITCMelakaDT", "address": "Lot15702,MukimBukitKatil,DaerahMelakaTengah,HangTuahJaya,75450,Melaka,Malaysia", "telephone": "06-2314743", "parlimen": "P.137 Hang Tuah Jaya", "dun": "N.16 Ayer Keroh", "latitude": 2.273822, "longitude": 102.285796 }, "geometry": { "type": "Point", "coordinates": [ 102.285796, 2.273822 ] } },
{ "type": "Feature", "properties": { "name": "McDonald'sTaipingLakeGardenDT", "address": "Lot3410(PT1238),JalanSultanMansor,DaerahLarutDanMatang,34000,Taiping,Perak,Malaysia", "telephone": "05-8088795", "parlimen": "P.060 Taiping", "dun": "N.17 Pokok Assam", "latitude": 4.85431, "longitude": 100.745349 }, "geometry": { "type": "Point", "coordinates": [ 100.745349, 4.85431 ] } },
{ "type": "Feature", "properties": { "name": "McDonald'sHarbourMallSandakan", "address": "LotG09,G10&G12A,HarbourMallSandakan,SandakanHarbourSquare,90000,Sandakan,Sabah,Malaysia", "telephone": "089-276276", "parlimen": "P.186 Sandakan", "dun": "N.56 Tanjong Papat", "latitude": 5.838595, "longitude": 118.119511 }, "geometry": { "type": "Point", "coordinates": [ 118.119511, 5.838595 ] } },
{ "type": "Feature", "properties": { "name": "McDonald'sNongChikDT", "address": "SebahagianLotPT22062,JalanKolamAir,BandarJohorBahru,80100,JohorBahru,Johor,Malaysia", "telephone": "07-2209040", "parlimen": "P.161 Pulai", "dun": "N.46 Perling", "latitude": 1.462667, "longitude": 103.738872 }, "geometry": { "type": "Point", "coordinates": [ 103.738872, 1.462667 ] } },
{ "type": "Feature", "properties": { "name": "McDonald'sPengkalanChepaDT", "address": "JalanBendahara1/36,TamanBendahara,PengkalanChepa,16100,KotaBaru,Kelantan,Malaysia", "telephone": "09-7731763", "parlimen": "P.020 Pengkalan Chepa", "dun": "N.06 Chempaka", "latitude": 6.163431, "longitude": 102.283544 }, "geometry": { "type": "Point", "coordinates": [ 102.283544, 6.163431 ] } },
{ "type": "Feature", "properties": { "name": "McDonald'sPekanDT", "address": "SebahagianTanahTamanTasikSultanAbuBakar,26600,PekanBandarDiRaja,Pekan,Pahang,Malaysia", "telephone": "09-4269299", "parlimen": "P.085 Pekan", "dun": "N.21 Peramu Jaya", "latitude": 3.539354, "longitude": 103.385463 }, "geometry": { "type": "Point", "coordinates": [ 103.385463, 3.539354 ] } },
{ "type": "Feature", "properties": { "name": "McDonald'sKotaEmeraldDT", "address": "SebahagianLot1246,MukimRawang,DaerahGombak,48000,Rawang,Selangor,Malaysia", "telephone": "03-60915570", "parlimen": "P.097 Selayang", "dun": "N.14 Rawang", "latitude": 3.317667, "longitude": 101.538584 }, "geometry": { "type": "Point", "coordinates": [ 101.538584, 3.317667 ] } },
{ "type": "Feature", "properties": { "name": "McDonald'sTescoAlmaDT", "address": "SebahagianLot17493,JalanRozhan,PusatPerniagaanSeriImpian,14000,BukitMertajam,PulauPinang,Malaysia", "telephone": "604-5308379", "parlimen": "P.045 Bukit Mertajam", "dun": "N.14 Machang Bubuk", "latitude": 5.315285, "longitude": 100.477512 }, "geometry": { "type": "Point", "coordinates": [ 100.477512, 5.315285 ] } },
{ "type": "Feature", "properties": { "name": "McDonald'sBertamDT", "address": "SebahagianLot20016,Mukim06,SeberangPeraiUtara,13200,PulauPinang,Malaysia", "telephone": "04-5755358", "parlimen": "P.041 Kepala Batas", "dun": "N.03 Pinang Tunggal", "latitude": 5.517539, "longitude": 100.450306 }, "geometry": { "type": "Point", "coordinates": [ 100.450306, 5.517539 ] } },
{ "type": "Feature", "properties": { "name": "McDonald'sTriangDT", "address": "SebahagianPT25213,MukimTriang,DaerahBera,28300,Temerloh,Pahang,Malaysia", "telephone": "09-2556350", "parlimen": "P.090 Bera", "dun": "N.38 Triang", "latitude": 3.25927, "longitude": 102.435187 }, "geometry": { "type": "Point", "coordinates": [ 102.435187, 3.25927 ] } },
{ "type": "Feature", "properties": { "name": "McDonald'sTemerlohDT", "address": "SebahagianLot1304Sek.05(GM7677),MukimPerak,28000,Temerloh,Pahang,Malaysia", "telephone": "09-2962529", "parlimen": "P.088 Temerloh", "dun": "N.32 Kuala Semantan", "latitude": 3.451867, "longitude": 102.409495 }, "geometry": { "type": "Point", "coordinates": [ 102.409495, 3.451867 ] } },
{ "type": "Feature", "properties": { "name": "McDonald'sTTDI(TamanTunDrIsmail)", "address": "No.2,2A&B,JalanTunMohdFuad2,TamanTunDrIsmail,60000,KualaLumpur,Malaysia", "telephone": "603-77221767", "parlimen": "P.117 Segambut", "dun": null, "latitude": 3.140522, "longitude": 101.629209 }, "geometry": { "type": "Point", "coordinates": [ 101.629209, 3.140522 ] } },
{ "type": "Feature", "properties": { "name": "McDonald'sBintuluDT", "address": "Lots119&120,Block32,KemenaLandDistrict,JalanTunHusseinOnn,97000,Bintulu,Sarawak,Malaysia", "telephone": "086-312124", "parlimen": "P.217 Bintulu", "dun": "N.68 Tanjong Batu", "latitude": 3.19756, "longitude": 113.079632 }, "geometry": { "type": "Point", "coordinates": [ 113.079632, 3.19756 ] } },
{ "type": "Feature", "properties": { "name": "McDonald'sPlazaMerdeka", "address": "LotNos.G-12,G-13,PartOfL1-15andAlfrescoArea,PlazaMerdeka,No88,PearlStreet,93000,Kuching,Sarawak,Malaysia", "telephone": "082-232479", "parlimen": "P.195 Bandar Kuching", "dun": "N.09 Padungan", "latitude": 1.558775, "longitude": 110.344069 }, "geometry": { "type": "Point", "coordinates": [ 110.344069, 1.558775 ] } },
{ "type": "Feature", "properties": { "name": "McDonald'sKluangDT", "address": "265&343,GM.3095DanGM.3096,JalanKluang-AirHitam,86000,Kluang,Johor,Malaysia", "telephone": "07-7714658", "parlimen": "P.152 Kluang", "dun": "N.29 Mahkota", "latitude": 2.018448, "longitude": 103.297813 }, "geometry": { "type": "Point", "coordinates": [ 103.297813, 2.018448 ] } },
{ "type": "Feature", "properties": { "name": "McDonald'sMutiaraRiniDT", "address": "SebahagianLot2144714,Lot2(PTD176566),TamanMutiaraRini,MukimPulai,86000JohorBahru,Johor,Malaysia", "telephone": "07-5212450", "parlimen": "P.162 Iskandar Puteri", "dun": "N.49 Kota Iskandar", "latitude": 1.514741, "longitude": 103.634202 }, "geometry": { "type": "Point", "coordinates": [ 103.634202, 1.514741 ] } },
{ "type": "Feature", "properties": { "name": "McDonald'sMeruRayaDT", "address": "Lot82,JalanMeruBestariA2,DiatasSebahagianZon5,BandarMeruRaya,MukimHuluKinta,30020,Kinta,Perak,Malaysia", "telephone": "05-5262233", "parlimen": "P.063 Tambun", "dun": "N.23 Manjoi", "latitude": 4.670849, "longitude": 101.07766 }, "geometry": { "type": "Point", "coordinates": [ 101.07766, 4.670849 ] } },
{ "type": "Feature", "properties": { "name": "McDonald'sForestHeightDT", "address": "SebahagianLot33369,MukimAmpanganSeremban,70450,Seremban,NegeriSembilan,Malaysia", "telephone": "06-7630260", "parlimen": "P.130 Rasah", "dun": "N.24 Seremban Jaya", "latitude": 2.699703, "longitude": 101.970083 }, "geometry": { "type": "Point", "coordinates": [ 101.970083, 2.699703 ] } },
{ "type": "Feature", "properties": { "name": "McDonald'sPetronSection7", "address": "No.5,PersiaranKayanganSeksyen7(Fasa3C),40000,ShahAlam,Selangor,Malaysia", "telephone": "03-55240645", "parlimen": "P.108 Shah Alam", "dun": "N.40 Kota Anggerik", "latitude": 3.065698, "longitude": 101.490766 }, "geometry": { "type": "Point", "coordinates": [ 101.490766, 3.065698 ] } },
{ "type": "Feature", "properties": { "name": "McDonald'sSatokKuching", "address": "Lot180&181,Ground&1stFloor,BangunanHajiAbdulRasit,JalanSatok,93400,Kuching,Sarawak,Malaysia", "telephone": "082-233598", "parlimen": "P.194 Petra Jaya", "dun": "N.08 Satok", "latitude": 1.553416, "longitude": 110.334022 }, "geometry": { "type": "Point", "coordinates": [ 110.334022, 1.553416 ] } },
{ "type": "Feature", "properties": { "name": "McDonald'sAlorMengkuduDT", "address": "No8-A,JalanAlorMengkudu,05400,AlorSetar,Kedah,Malaysia", "telephone": "04-7317304", "parlimen": "P.009 Alor Setar", "dun": "N.14 Alor Mengkudu", "latitude": 6.096192, "longitude": 100.376115 }, "geometry": { "type": "Point", "coordinates": [ 100.376115, 6.096192 ] } },
{ "type": "Feature", "properties": { "name": "McDonald'sBatuCavesDT", "address": "Lot52613,TamanSamudera,53000,BatuCaves,Selangor,Malaysia", "telephone": "03-61850130", "parlimen": "P.098 Gombak", "dun": "N.16 Sungai Tua", "latitude": 3.23509, "longitude": 101.689724 }, "geometry": { "type": "Point", "coordinates": [ 101.689724, 3.23509 ] } },
{ "type": "Feature", "properties": { "name": "McDonald'sSriManjung2DT", "address": "SebahagianLot13108,MukimLumut,DaerahManjung,32010,SriManjung,Perak,Malaysia", "telephone": "05-6879482", "parlimen": "P.074 Lumut", "dun": "N.51 Pasir Panjang", "latitude": 4.199325, "longitude": 100.655221 }, "geometry": { "type": "Point", "coordinates": [ 100.655221, 4.199325 ] } },
{ "type": "Feature", "properties": { "name": "McDonald'sGongBadakDT", "address": "LotNo.9154GM4340,JalanTengkuAmpuanIntanZaharah,MukimKualaNerus,21300,KualaTerengganu,Terengganu,Malaysia", "telephone": "09-6627800", "parlimen": "P.035 Kuala Nerus", "dun": "N.11 Seberang Takir", "latitude": 5.39816, "longitude": 103.084856 }, "geometry": { "type": "Point", "coordinates": [ 103.084856, 5.39816 ] } },
{ "type": "Feature", "properties": { "name": "McDonald'sGiantJalanKebunDT", "address": "PT128899,Batu31/2,JalanKebun,TamanMaznah,41000,BandarKlang,DaerahKlang,Selangor,Malaysia", "telephone": "03-33701985", "parlimen": "P.111 Kota Raja", "dun": "N.48 Sentosa", "latitude": 3.024657, "longitude": 101.479994 }, "geometry": { "type": "Point", "coordinates": [ 101.479994, 3.024657 ] } },
{ "type": "Feature", "properties": { "name": "McDonald'sTamanDayaDT", "address": "LotPTD110501,JalanNipah2,TamanDaya,81100,MukimTebrau,JohorBahru,Johor,Malaysia", "telephone": "07-3503205", "parlimen": "P.158 Tebrau", "dun": "N.41 Puteri Wangsa", "latitude": 1.543576, "longitude": 103.762622 }, "geometry": { "type": "Point", "coordinates": [ 103.762622, 1.543576 ] } },
{ "type": "Feature", "properties": { "name": "McDonald'sSriSerdangPrima", "address": "No.20-1,20-2&20-3,Jalan18/33A,TamanSriSerdang,43300,SeriKembangan,Selangor,Malaysia", "telephone": "03-89409037", "parlimen": "P.103 Puchong", "dun": "N.29 Seri Serdang", "latitude": 3.008579, "longitude": 101.714358 }, "geometry": { "type": "Point", "coordinates": [ 101.714358, 3.008579 ] } },
{ "type": "Feature", "properties": { "name": "McDonald'sKokLanasDT", "address": "Lot282,MukimMahangWest,DaerahKetereh,JajahanKotaBahru,16450,Kelantan,Malaysia", "telephone": "09-7882107", "parlimen": "P.026 Ketereh", "dun": "N.25 Kok Lanas", "latitude": 5.921957, "longitude": 102.244611 }, "geometry": { "type": "Point", "coordinates": [ 102.244611, 5.921957 ] } },
{ "type": "Feature", "properties": { "name": "McDonald'sTabuanJayaDT", "address": "Lot16843(Lots4581,9210and9212),Block11,MTLDJalanCanna,93150,Kuching,Sarawak,Malaysia", "telephone": "082-360395", "parlimen": "P.195 Bandar Kuching", "dun": "N.11 Batu Lintang", "latitude": 1.513061, "longitude": 110.387951 }, "geometry": { "type": "Point", "coordinates": [ 110.387951, 1.513061 ] } },
{ "type": "Feature", "properties": { "name": "McDonald'sBandarPuteriPuchongDT", "address": "No.G-6,No.1-6&No.2-6,JalanPuteri7/13A,BandarPuteri,47100,Puchong,Selangor,Malaysia", "telephone": "03-80514150", "parlimen": "P.104 Subang", "dun": "N.30 Kinrara", "latitude": 3.020174, "longitude": 101.625074 }, "geometry": { "type": "Point", "coordinates": [ 101.625074, 3.020174 ] } },
{ "type": "Feature", "properties": { "name": "McDonald'sSerembanDT", "address": "Lot24158(PT2)&Lot24159(PT3),PekanBukitKepayang,MukimRasah,70200,Seremban,NegeriSembilan,Malaysia", "telephone": "06-7627625", "parlimen": "P.130 Rasah", "dun": "N.21 Bukit Kepayang", "latitude": 2.716919, "longitude": 101.918724 }, "geometry": { "type": "Point", "coordinates": [ 101.918724, 2.716919 ] } },
{ "type": "Feature", "properties": { "name": "McDonald'sJerantutDT", "address": "Lot15495,MukimPedah,DaerahJerantut,27000,Jerantut,Pahang,Malaysia", "telephone": "09-2665900", "parlimen": "P.081 Jerantut", "dun": "N.10 Damak", "latitude": 3.933405, "longitude": 102.381333 }, "geometry": { "type": "Point", "coordinates": [ 102.381333, 3.933405 ] } },
{ "type": "Feature", "properties": { "name": "McDonald'sMJCBatuKawaDT,Kuching", "address": "Lot3421(ParentLot2433),Block217KNLD,BatuKawaNewTownship,93250,Kuching,Sarawak,Malaysia", "telephone": "082-462587", "parlimen": "P.196 Stampin", "dun": "N.13 Batu Kitang", "latitude": 1.511653, "longitude": 110.304554 }, "geometry": { "type": "Point", "coordinates": [ 110.304554, 1.511653 ] } },
{ "type": "Feature", "properties": { "name": "McDonald'sKotaLaksamanaDT", "address": "LotPT188,PekanKlebangSek.IV,DaerahMelakaTengah,BandarayaMelaka,75200,Melaka,Malaysia", "telephone": "06-2821406", "parlimen": "P.138 Kota Melaka", "dun": "N.19 Kesidang", "latitude": 2.202883, "longitude": 102.223247 }, "geometry": { "type": "Point", "coordinates": [ 102.223247, 2.202883 ] } },
{ "type": "Feature", "properties": { "name": "McDonald'sBHPTamanMelawatiDT", "address": "LotPT8669,JalanLingkaranTengahII,53100,KualaLumpur,Malaysia", "telephone": "03-41622318", "parlimen": "P.116 Wangsa Maju", "dun": null, "latitude": 3.220217, "longitude": 101.735889 }, "geometry": { "type": "Point", "coordinates": [ 101.735889, 3.220217 ] } },
{ "type": "Feature", "properties": { "name": "McDonald'sBirchHouseDT", "address": "No.73,JalanDato'Keramat,10150,Georgetown,PulauPinang,Malaysia", "telephone": "04-2265685", "parlimen": "P.049 Tanjong", "dun": "N.28 Komtar", "latitude": 5.412839, "longitude": 100.326031 }, "geometry": { "type": "Point", "coordinates": [ 100.326031, 5.412839 ] } },
{ "type": "Feature", "properties": { "name": "McDonald'sMainPlace", "address": "LotNoGF-36,GroundFloor,MainPlaceMall,JalanUSJ21/10,47630,SubangJaya,Selangor,Malaysia", "telephone": "03-80118420", "parlimen": "P.104 Subang", "dun": "N.31 Subang Jaya", "latitude": 3.02665, "longitude": 101.581506 }, "geometry": { "type": "Point", "coordinates": [ 101.581506, 3.02665 ] } },
{ "type": "Feature", "properties": { "name": "McDonald'sNUSentral", "address": "UnitNo.L4.02&03,Level4,1Sentral,JalanTravers,50470,KualaLumpur,Malaysia", "telephone": "03-22722054", "parlimen": "P.120 Bukit Bintang", "dun": null, "latitude": 3.133295, "longitude": 101.687277 }, "geometry": { "type": "Point", "coordinates": [ 101.687277, 3.133295 ] } },
{ "type": "Feature", "properties": { "name": "McDonald'sBandarSriPinangDT", "address": "No2,LebuhSungaiPinang4,11600,PulauPinang,Malaysia", "telephone": "04-2815291", "parlimen": "P.050 Jelutong", "dun": "N.30 Sungai Pinang", "latitude": 5.395419, "longitude": 100.326778 }, "geometry": { "type": "Point", "coordinates": [ 100.326778, 5.395419 ] } },
{ "type": "Feature", "properties": { "name": "McDonald'sKLIA2Gateway", "address": "LotL3-47-L3-50&L3-33,Level3,Gateway@KLIA2,H.S(D)7429,PTNo13,BandarLapanganTerbangAntarabangsaSepang,64000,Sepang,Selangor,Malaysia", "telephone": "03-87878271", "parlimen": "P.113 Sepang", "dun": "N.56 Sungai Pelek", "latitude": 2.743521, "longitude": 101.685438 }, "geometry": { "type": "Point", "coordinates": [ 101.685438, 2.743521 ] } },
{ "type": "Feature", "properties": { "name": "McDonald'sMetroCityDT", "address": "Lot14212(Plot79),MetroCityNewTownship,Section65,KuchingTownLandDistrict,JalanMatang,93050,Kuching,Sarawak,Malaysia", "telephone": "082-646793", "parlimen": "P.194 Petra Jaya", "dun": "N.06 Tupong", "latitude": 1.568231, "longitude": 110.308561 }, "geometry": { "type": "Point", "coordinates": [ 110.308561, 1.568231 ] } },
{ "type": "Feature", "properties": { "name": "McDonald'sKangarDT", "address": "JalanKampungBakau,01000,Kangar,Perlis,Malaysia", "telephone": "04-9779336", "parlimen": "P.002 Kangar", "dun": "N.08 Indera Kayangan", "latitude": 6.432622, "longitude": 100.196158 }, "geometry": { "type": "Point", "coordinates": [ 100.196158, 6.432622 ] } },
{ "type": "Feature", "properties": { "name": "McDonald'sSeremban2DT", "address": "LotPT560,BandarSerembanUtama,Seremban2,70300,Seremban,NegeriSembilan,Malaysia", "telephone": "06-6307043", "parlimen": "P.130 Rasah", "dun": "N.21 Bukit Kepayang", "latitude": 2.691766, "longitude": 101.906053 }, "geometry": { "type": "Point", "coordinates": [ 101.906053, 2.691766 ] } },
{ "type": "Feature", "properties": { "name": "McDonald'sSriPetaling", "address": "No63&63-1,JalanRadinTengah,BandarBaruSriPetaling,57000,KualaLumpur,Malaysia", "telephone": "03-90545927", "parlimen": "P.122 Seputeh", "dun": null, "latitude": 3.068888, "longitude": 101.6918 }, "geometry": { "type": "Point", "coordinates": [ 101.6918, 3.068888 ] } },
{ "type": "Feature", "properties": { "name": "McDonald'sIOICityMall", "address": "LotNos.57&58,IOICityMall,IOIResort,62502,Putrajaya,Selangor,Malaysia", "telephone": "03-89571562", "parlimen": "P.113 Sepang", "dun": "N.55 Dengkil", "latitude": 2.970368, "longitude": 101.712868 }, "geometry": { "type": "Point", "coordinates": [ 101.712868, 2.970368 ] } },
{ "type": "Feature", "properties": { "name": "McDonald'sMuarDT", "address": "Lot3070,JalanBakri,MukimBandarMaharani,84000,Muar,Johor,Malaysia", "telephone": "06-9510753", "parlimen": "P.145 Bakri", "dun": "N.13 Simpang Jeram", "latitude": 2.048498, "longitude": 102.59325 }, "geometry": { "type": "Point", "coordinates": [ 102.59325, 2.048498 ] } },
{ "type": "Feature", "properties": { "name": "McDonald'sKajangPerdanaDT", "address": "18,MukimSemenyih,DaerahUluLangat,43000,Kajang,Selangor,Malaysia", "telephone": "03-87417192", "parlimen": "P.102 Bangi", "dun": "N.25 Kajang", "latitude": 2.990079, "longitude": 101.819705 }, "geometry": { "type": "Point", "coordinates": [ 101.819705, 2.990079 ] } },
{ "type": "Feature", "properties": { "name": "McDonald'sBandarSriPutraDT", "address": "SebahagianLot38833,JalanSeriPutra1/9,BandarSeriPutra,43000,Kajang,Selangor,Malaysia", "telephone": "03-89120244", "parlimen": "P.101 Hulu Langat", "dun": "N.24 Semenyih", "latitude": 2.886726, "longitude": 101.792793 }, "geometry": { "type": "Point", "coordinates": [ 101.792793, 2.886726 ] } },
{ "type": "Feature", "properties": { "name": "McDonald'sJalanGambangDT", "address": "Lot121596,JalanKuantanGambang,KualaKuantan,25150,Kuantan,Pahang,Malaysia", "telephone": "09-5362746", "parlimen": "P.083 Kuantan", "dun": "N.15 Tanjung Lumpur", "latitude": 3.779836, "longitude": 103.276752 }, "geometry": { "type": "Point", "coordinates": [ 103.276752, 3.779836 ] } },
{ "type": "Feature", "properties": { "name": "McDonald'sSabakBernamDT", "address": "Lot24040PekanSungaiBesar,MukimPanchangBedena,45300,SabakBernam,Selangor,Malaysia", "telephone": "03-32243024", "parlimen": "P.093 Sungai Besar", "dun": "N.03 Sungai Panjang", "latitude": 3.673571, "longitude": 100.991464 }, "geometry": { "type": "Point", "coordinates": [ 100.991464, 3.673571 ] } },
{ "type": "Feature", "properties": { "name": "McDonald'sKotaMasaiDT", "address": "Lot85821,TamanKotaMasai,Plentong,81700,PasirGudang,Johor,Malaysia", "telephone": "07-2527842", "parlimen": "P.159 Pasir Gudang", "dun": "N.43 Permas", "latitude": 1.492546, "longitude": 103.918802 }, "geometry": { "type": "Point", "coordinates": [ 103.918802, 1.492546 ] } },
{ "type": "Feature", "properties": { "name": "McDonald'sCalteDenaiAlamDT", "address": "LotNo.3,PersiaranElektron,DenaiAlam,SectionU16,40160,ShahAlam,Selangor,Malaysia", "telephone": "03-77342914", "parlimen": "P.108 Shah Alam", "dun": "N.40 Kota Anggerik", "latitude": 3.159427, "longitude": 101.51307 }, "geometry": { "type": "Point", "coordinates": [ 101.51307, 3.159427 ] } },
{ "type": "Feature", "properties": { "name": "McDonald'sMidValley3", "address": "Tingkat3,MidValleyMegamall,LingkaranSyedPutra,59200,KualaLumpur,Malaysia", "telephone": "03-22010506", "parlimen": "P.121 Lembah Pantai", "dun": null, "latitude": 3.117399, "longitude": 101.677572 }, "geometry": { "type": "Point", "coordinates": [ 101.677572, 3.117399 ] } },
{ "type": "Feature", "properties": { "name": "McDonald'sAmanCentral", "address": "Unit1-39A,58,59,60,67&68,FirstFloor,AmanCentral,05100,AlorSetar,Kedah,Malaysia", "telephone": "04-7319299", "parlimen": "P.009 Alor Setar", "dun": "N.13 Kota Darul Aman", "latitude": 6.12524, "longitude": 100.366629 }, "geometry": { "type": "Point", "coordinates": [ 100.366629, 6.12524 ] } },
{ "type": "Feature", "properties": { "name": "McDonald'sCalteJalanTengahDT", "address": "No.23-A,JalanTengah,BayanBaru,11950,BayanLepas,PulauPinang,Malaysia", "telephone": "04-6380570", "parlimen": "P.052 Bayan Baru", "dun": "N.36 Pantai Jerejak", "latitude": 5.319377, "longitude": 100.284669 }, "geometry": { "type": "Point", "coordinates": [ 100.284669, 5.319377 ] } },
{ "type": "Feature", "properties": { "name": "McDonald'sTamanUngkuTunAminahDT", "address": "Lot13576,TamanUngkuAminah,MukimPulai,81300,JohorBahru,Johor,Malaysia", "telephone": "07-5571650", "parlimen": "P.162 Iskandar Puteri", "dun": "N.48 Skudai", "latitude": 1.513875, "longitude": 103.656394 }, "geometry": { "type": "Point", "coordinates": [ 103.656394, 1.513875 ] } },
{ "type": "Feature", "properties": { "name": "McDonald'sKotaBahruDT", "address": "Lot2994,JalanKualaKrai,WakafCheYeh,15050,KotaBahru,Kelantan,Malaysia", "telephone": "09-7405427", "parlimen": "P.021 Kota Bharu", "dun": "N.10 Bunut Payong", "latitude": 6.086991, "longitude": 102.238965 }, "geometry": { "type": "Point", "coordinates": [ 102.238965, 6.086991 ] } },
{ "type": "Feature", "properties": { "name": "McDonald'sKLSentral", "address": "Lot14,15,&16,FirstFloor,KualaLumpurSentralStation,50470,KualaLumpur,Malaysia", "telephone": "03-22711431", "parlimen": "P.120 Bukit Bintang", "dun": null, "latitude": 3.134615, "longitude": 101.686593 }, "geometry": { "type": "Point", "coordinates": [ 101.686593, 3.134615 ] } },
{ "type": "Feature", "properties": { "name": "McDonald'sMentakabStarMall", "address": "F&B1,MentakabStarMall,No1,JalanStarCity1,StarCity,28400,Mentakab,Pahang,Malaysia", "telephone": "09-2785034", "parlimen": "P.088 Temerloh", "dun": "N.30 Mentakab", "latitude": 3.470383, "longitude": 102.331465 }, "geometry": { "type": "Point", "coordinates": [ 102.331465, 3.470383 ] } },
{ "type": "Feature", "properties": { "name": "McDonald'sMegamallPenang", "address": "G-11,2898,JalanBaru,BandarPraiJaya,13600,SeberangPraiTengah,Prai,PulauPinang,Malaysia", "telephone": "04-3998199", "parlimen": "P.046 Batu Kawan", "dun": "N.16 Perai", "latitude": 5.377595, "longitude": 100.39953 }, "geometry": { "type": "Point", "coordinates": [ 100.39953, 5.377595 ] } },
{ "type": "Feature", "properties": { "name": "McDonald'sJalanSultanAzlanShahDT", "address": "Lot197129,Plot2,JalanMedanIpoh,1AMedanIpohBistari,31400,Ipoh,Perak,Malaysia", "telephone": "05-5464573", "parlimen": "P.064 Ipoh Timor", "dun": "N.25 Canning", "latitude": 4.621261, "longitude": 101.116658 }, "geometry": { "type": "Point", "coordinates": [ 101.116658, 4.621261 ] } },
{ "type": "Feature", "properties": { "name": "McDonald'sJalanSulamanDT2KK", "address": "Lot2OfNT013108275,AlongSulamanRoad,88450,KotaKinabalu,Sabah,Malaysia", "telephone": "088-493398", "parlimen": "P.171 Sepanggar", "dun": "N.17 Darau", "latitude": 6.038688, "longitude": 116.144268 }, "geometry": { "type": "Point", "coordinates": [ 116.144268, 6.038688 ] } },
{ "type": "Feature", "properties": { "name": "McDonald'sApi-Api(KotaKinabalu)", "address": "LotNo.1/G1&1/G2,Ground&FirstFloor,Api-ApiCentre,JalanCentrepoint,88000,KotaKinabalu,Sabah,Malaysia", "telephone": "088-261501/088-274611", "parlimen": "P.172 Kota Kinabalu", "dun": "N.20 Api-Api", "latitude": 5.976881, "longitude": 116.071212 }, "geometry": { "type": "Point", "coordinates": [ 116.071212, 5.976881 ] } },
{ "type": "Feature", "properties": { "name": "McDonald'sCentrePointKK", "address": "LotL-9,LowerGroundFloor,CentrePointShoppingCentre,JalanCentrePoint,88000,KotaKinabalu,Sabah,Malaysia", "telephone": "088-269226", "parlimen": "P.172 Kota Kinabalu", "dun": "N.20 Api-Api", "latitude": 5.978472, "longitude": 116.072106 }, "geometry": { "type": "Point", "coordinates": [ 116.072106, 5.978472 ] } },
{ "type": "Feature", "properties": { "name": "McDonald'sSS15Subang", "address": "GF,No.82&84,JalanSS15/4D,47500,SubangJaya,Selangor,Malaysia", "telephone": "03-56110172", "parlimen": "P.104 Subang", "dun": "N.31 Subang Jaya", "latitude": 3.073651, "longitude": 101.590526 }, "geometry": { "type": "Point", "coordinates": [ 101.590526, 3.073651 ] } },
{ "type": "Feature", "properties": { "name": "McDonald'sSection18ShahAlam", "address": "No.37,JalanPinang18B,Section18,40200,ShahAlam,Selangor,Malaysia", "telephone": "03-55495398", "parlimen": "P.108 Shah Alam", "dun": "N.41 Batu Tiga", "latitude": 3.044239, "longitude": 101.51807 }, "geometry": { "type": "Point", "coordinates": [ 101.51807, 3.044239 ] } },
{ "type": "Feature", "properties": { "name": "McDonald'sGiantShahAlam", "address": "Lot17-22,GroundFloor,GiantHypermarket,Lot2,ShahAlamStadium,PersiaranSukan,Seksyen13,41400,ShahAlam,Selangor,Malaysia", "telephone": "03-55110368", "parlimen": "P.108 Shah Alam", "dun": "N.40 Kota Anggerik", "latitude": 3.083907, "longitude": 101.549024 }, "geometry": { "type": "Point", "coordinates": [ 101.549024, 3.083907 ] } },
{ "type": "Feature", "properties": { "name": "McDonald'sProjectKarak", "address": "Lot5946,JalanLingkaranTengahII,OffLebuhrayaKarak,53300,Gombak,Selangor,Malaysia", "telephone": "03-61876904", "parlimen": "P.098 Gombak", "dun": "N.17 Gombak Setia", "latitude": 3.240989, "longitude": 101.716157 }, "geometry": { "type": "Point", "coordinates": [ 101.716157, 3.240989 ] } },
{ "type": "Feature", "properties": { "name": "McDonald'sSection14", "address": "No.2,Jalan14/4,46100,PetalingJaya,Selangor,Malaysia", "telephone": "03-79312673", "parlimen": "P.105 Petaling Jaya", "dun": "N.34 Bukit Gasing", "latitude": 3.109608, "longitude": 101.637001 }, "geometry": { "type": "Point", "coordinates": [ 101.637001, 3.109608 ] } },
{ "type": "Feature", "properties": { "name": "McDonald'sPJOldTown", "address": "No.66,BlockCrystal,Jalan1/19,46200,PetalingJaya,Selangor,Malaysia", "telephone": "03-77836755", "parlimen": "P.105 Petaling Jaya", "dun": "N.34 Bukit Gasing", "latitude": 3.086649, "longitude": 101.64686 }, "geometry": { "type": "Point", "coordinates": [ 101.64686, 3.086649 ] } },
{ "type": "Feature", "properties": { "name": "McDonald'sPKNSShahAlam", "address": "G14&G36,TingkatBawah,KompleksPKNS,40000,ShahAlam,Selangor,Malaysia", "telephone": "03-55192302", "parlimen": "P.108 Shah Alam", "dun": "N.40 Kota Anggerik", "latitude": 3.070532, "longitude": 101.516984 }, "geometry": { "type": "Point", "coordinates": [ 101.516984, 3.070532 ] } },
{ "type": "Feature", "properties": { "name": "McDonald'sKualaTerengganuDT", "address": "Lot3540,JalanSultanMohammad,PadangHiliran,21100,KualaTerengganu,Terengganu,Malaysia", "telephone": "09-6313901", "parlimen": "P.036 Kuala Terengganu", "dun": "N.14 Bandar", "latitude": 5.310455, "longitude": 103.129287 }, "geometry": { "type": "Point", "coordinates": [ 103.129287, 5.310455 ] } },
{ "type": "Feature", "properties": { "name": "McDonald'sCalteChukai", "address": "K-191,JalanKubangKurus,CukaiKemaman,24000,Kemaman,Terengganu,Malaysia", "telephone": "09-8585579", "parlimen": "P.040 Kemaman", "dun": "N.31 Cukai", "latitude": 4.22948, "longitude": 103.419971 }, "geometry": { "type": "Point", "coordinates": [ 103.419971, 4.22948 ] } },
{ "type": "Feature", "properties": { "name": "McDonald'sPutrajayaPersint2DT", "address": "SebahagianLot7(2M1),Presint2,62100Putrajaya", "telephone": "03-88615413", "parlimen": "P.125 Putrajaya", "dun": null, "latitude": 2.926237, "longitude": 101.684837 }, "geometry": { "type": "Point", "coordinates": [ 101.684837, 2.926237 ] } },
{ "type": "Feature", "properties": { "name": "McDonald'sBHPJalanKapar", "address": "PT34062,Batu3.5JalanKapar,42100SelangorDarulEhsan", "telephone": "03-32901226", "parlimen": "P.109 Kapar", "dun": "N.43 Sementa", "latitude": 3.071424, "longitude": 101.410867 }, "geometry": { "type": "Point", "coordinates": [ 101.410867, 3.071424 ] } },
{ "type": "Feature", "properties": { "name": "McDonald'sCyberjaya", "address": "Prima5-B,JalanTeknorat5,63000,Cyberjaya,SelangorDarulEhsan", "telephone": "03-86880450", "parlimen": "P.113 Sepang", "dun": "N.55 Dengkil", "latitude": 2.921166, "longitude": 101.655869 }, "geometry": { "type": "Point", "coordinates": [ 101.655869, 2.921166 ] } },
{ "type": "Feature", "properties": { "name": "McDonald'sPetrajayaDT", "address": "Plot1,Lot477(Phase2)Block17,SalakLandDistrict,JalanSemariang,93050,Kuching,Sarawak,Malaysia", "telephone": "082-506094", "parlimen": "P.194 Petra Jaya", "dun": "N.07 Samariang", "latitude": 1.586954, "longitude": 110.331143 }, "geometry": { "type": "Point", "coordinates": [ 110.331143, 1.586954 ] } },
{ "type": "Feature", "properties": { "name": "McDonald'sKuantanRiverfrontDT", "address": "SebahagianLot57&SebahagianLot5,JalanTanahPutih,25000,Kuantan,Pahang", "telephone": "09-5132665", "parlimen": "P.083 Kuantan", "dun": "N.15 Tanjung Lumpur", "latitude": 3.799071, "longitude": 103.322594 }, "geometry": { "type": "Point", "coordinates": [ 103.322594, 3.799071 ] } },
{ "type": "Feature", "properties": { "name": "McDonald'sSuriaSabahKK", "address": "LotG-Et1&PartofLotG35,GroundFloor,SuriaSabahShoppingMall,No.1,JalanTunFuadStephens,88000KotaKinabalu,Sabah,Malaysia", "telephone": "088-274649", "parlimen": "P.172 Kota Kinabalu", "dun": "N.19 Likas", "latitude": 5.986932, "longitude": 116.076192 }, "geometry": { "type": "Point", "coordinates": [ 116.076192, 5.986932 ] } },
{ "type": "Feature", "properties": { "name": "McDonald'sCitySquare", "address": "No.M1-06-06A,Level1,JohorBahruCitySquare,JalanWongAhFook,80400,JohorBahru,Johor,Malaysia", "telephone": "07-2215801", "parlimen": "P.161 Pulai", "dun": "N.46 Perling", "latitude": 1.461972, "longitude": 103.763575 }, "geometry": { "type": "Point", "coordinates": [ 103.763575, 1.461972 ] } },
{ "type": "Feature", "properties": { "name": "McDonald'sSuriaKLCC", "address": "LotC35-38,ConcourseFloor,SuriaKLCCShoppingCentre,JalanAmpang,50088,KualaLumpur,Malaysia", "telephone": "03-27151512", "parlimen": "P.120 Bukit Bintang", "dun": null, "latitude": 3.157474, "longitude": 101.712164 }, "geometry": { "type": "Point", "coordinates": [ 101.712164, 3.157474 ] } },
{ "type": "Feature", "properties": { "name": "McDonald'sBHPTamanKosasDT", "address": "LotPT9623,JalanTamanKosas2,TamanKosas,68000,Ampang,Selangor,Malaysia", "telephone": "016-7239014", "parlimen": "P.099 Ampang", "dun": "N.19 Bukit Antarabangsa", "latitude": 3.148208, "longitude": 101.76634 }, "geometry": { "type": "Point", "coordinates": [ 101.76634, 3.148208 ] } },
{ "type": "Feature", "properties": { "name": "McDonald'sShellPutraHeightDT", "address": "LotPT.35810,PersiaranPutraIndah,PutraHeights,MukimDamansara,DaerahPetaling,47650,Selangor,Malaysia", "telephone": "03-51035347", "parlimen": "P.111 Kota Raja", "dun": "N.50 Kota Kemuning", "latitude": 2.99728, "longitude": 101.570971 }, "geometry": { "type": "Point", "coordinates": [ 101.570971, 2.99728 ] } },
{ "type": "Feature", "properties": { "name": "McDonald'sShellJalanPandanDT", "address": "LotPTD209631,JalanPandan,81100,JohorBahru,Johor,Malaysia", "telephone": "07-3512295", "parlimen": "P.159 Pasir Gudang", "dun": "N.42 Johor Jaya", "latitude": 1.525077, "longitude": 103.772502 }, "geometry": { "type": "Point", "coordinates": [ 103.772502, 1.525077 ] } },
{ "type": "Feature", "properties": { "name": "McDonald'sParadigmMallJB", "address": "Lot4F-45B,FourthFloor,ParadigmMallJB,JalanSkudai,81200JohorBahru,Johor.", "telephone": "07-2309173", "parlimen": "P.161 Pulai", "dun": "N.47 Kempas", "latitude": 1.515158, "longitude": 103.685767 }, "geometry": { "type": "Point", "coordinates": [ 103.685767, 1.515158 ] } },
{ "type": "Feature", "properties": { "name": "McDonald'sMyTownMall", "address": "LotNo.B1-03&B1-E-03,MyTownShoppingCentre,No.6,JalanCohcrane,Section90,55100,KualaLumpur,Malaysia", "telephone": "03-27322566", "parlimen": "P.119 Titiwangsa", "dun": null, "latitude": 3.134208, "longitude": 101.723645 }, "geometry": { "type": "Point", "coordinates": [ 101.723645, 3.134208 ] } },
{ "type": "Feature", "properties": { "name": "McDonald'sSetiaAlamDT", "address": "PT34532,JalanSetiaAlamARU13/AR,SetiaAlam,SectionU13,40170,ShahAlam,Selangor,Malaysia", "telephone": "03-33582970", "parlimen": "P.108 Shah Alam", "dun": "N.40 Kota Anggerik", "latitude": 3.127111, "longitude": 101.466829 }, "geometry": { "type": "Point", "coordinates": [ 101.466829, 3.127111 ] } },
{ "type": "Feature", "properties": { "name": "McDonald'sSunwayVelocityMall", "address": "LG,SunwayVelocityMall,JalanPeel,55100,KualaLumpur,Malaysia", "telephone": "03-27320717", "parlimen": "P.123 Cheras", "dun": null, "latitude": 3.127299, "longitude": 101.724463 }, "geometry": { "type": "Point", "coordinates": [ 101.724463, 3.127299 ] } },
{ "type": "Feature", "properties": { "name": "McDonald'sOUG", "address": "PartofG03toG06,GroundFloor,PlazaOUG,JalanKlangLama,58000KualaLumpur.", "telephone": "03-79820933", "parlimen": "P.122 Seputeh", "dun": null, "latitude": 3.081921, "longitude": 101.671337 }, "geometry": { "type": "Point", "coordinates": [ 101.671337, 3.081921 ] } },
{ "type": "Feature", "properties": { "name": "McDonald'sBintangPlazaMiri", "address": "Lot1264,1stFloor,BintangPlazaShoppingCentre,JalanMiri-Pujut,98008Miri,Sarawak,Malaysia", "telephone": "085-433118", "parlimen": "P.219 Miri", "dun": "N.73 Piasau", "latitude": 4.397233, "longitude": 113.993806 }, "geometry": { "type": "Point", "coordinates": [ 113.993806, 4.397233 ] } },
{ "type": "Feature", "properties": { "name": "McDonald'sSetiaPearlDT", "address": "PartofLot16793,Mukim12,BaratDaya,11900,PulauPinang,Malaysia", "telephone": "04-2962806", "parlimen": "P.053 Balik Pulau", "dun": "N.38 Bayan Lepas", "latitude": 5.302556, "longitude": 100.261412 }, "geometry": { "type": "Point", "coordinates": [ 100.261412, 5.302556 ] } },
{ "type": "Feature", "properties": { "name": "McDonald'sAmpanganDT", "address": "LotGE-03,CentrepointSeremban,JalanDato'SiamangGagap,70300,Seremban,NegeriSembilan,Malaysia", "telephone": "06-7600425", "parlimen": "P.128 Seremban", "dun": "N.14 Ampangan", "latitude": 2.722367, "longitude": 101.955652 }, "geometry": { "type": "Point", "coordinates": [ 101.955652, 2.722367 ] } },
{ "type": "Feature", "properties": { "name": "McDonald'sShellSerdangRaya", "address": "LotPT2469,JalanUtama,TamanSerdangJaya,43300SeriKembangan,Selangor.", "telephone": "03-89381092", "parlimen": "P.103 Puchong", "dun": "N.28 Seri Kembangan", "latitude": 3.047288, "longitude": 101.704716 }, "geometry": { "type": "Point", "coordinates": [ 101.704716, 3.047288 ] } },
{ "type": "Feature", "properties": { "name": "McDonald'sIntermarkMall", "address": "LotNo.G17,G17A&G17B,GroundFloor,IntermarkMall,348,JalanTunRazak,50400,KualaLumpur,Malaysia", "telephone": "03-27155667", "parlimen": "P.119 Titiwangsa", "dun": null, "latitude": 3.161279, "longitude": 101.720181 }, "geometry": { "type": "Point", "coordinates": [ 101.720181, 3.161279 ] } },
{ "type": "Feature", "properties": { "name": "McDonald'sGurneyPlaza", "address": "UnitNo.170-G-75&170-01-73,10250,Penang,Malaysia", "telephone": "04-2264654", "parlimen": "P.048 Bukit Bendera", "dun": "N.25 Pulau Tikus", "latitude": 5.43709, "longitude": 100.309951 }, "geometry": { "type": "Point", "coordinates": [ 100.309951, 5.43709 ] } },
{ "type": "Feature", "properties": { "name": "McDonald'sPetronasKotaDamansaraDT", "address": "PartofPetronasStationKotaDamansara,No30,JalanTeknologi,Seksyen2,PJU5,KotaDamansara,47810PetalingJaya,Selangor", "telephone": "03-61503517", "parlimen": "P.107 Sungai Buloh", "dun": "N.39 Kota Damansara", "latitude": 3.14975, "longitude": 101.579685 }, "geometry": { "type": "Point", "coordinates": [ 101.579685, 3.14975 ] } },
{ "type": "Feature", "properties": { "name": "McDonald'sDanauKotaDT", "address": "PartofLot201138,JalanLangkawi,MukimSetapak,TamanDanauKota,53300KualaLumpur.", "telephone": "03-41310897", "parlimen": "P.116 Wangsa Maju", "dun": null, "latitude": 3.2066149, "longitude": 101.7175568 }, "geometry": { "type": "Point", "coordinates": [ 101.7175568, 3.2066149 ] } },
{ "type": "Feature", "properties": { "name": "McDonald'sCanaryGardenKlangDT", "address": "PartofLotPT51795,JalanLangatKS8,BandarBestari,41200Klang,SelangorDarulEhsan.", "telephone": "03-31221647", "parlimen": "P.110 Klang", "dun": "N.46 Pelabuhan Klang", "latitude": 2.960231, "longitude": 101.466226 }, "geometry": { "type": "Point", "coordinates": [ 101.466226, 2.960231 ] } },
{ "type": "Feature", "properties": { "name": "McDonald'sDesaParkCityDT", "address": "LotGF32&FF31,WaterfrontParkcity,PersiaranResiden,DesaparkCity,52200KualaLumpur.", "telephone": "03-62610971", "parlimen": "P.117 Segambut", "dun": null, "latitude": 3.1877337, "longitude": 101.62778 }, "geometry": { "type": "Point", "coordinates": [ 101.62778, 3.1877337 ] } },
{ "type": "Feature", "properties": { "name": "McDonald'sShellPortDicksonDT", "address": "Lot9169,7thMile,JalanPantai,KampungBaharu,71050PortDickson,NegeriSembilan", "telephone": "06-6466815", "parlimen": "P.132 Port Dickson", "dun": "N.31 Bagan Pinang", "latitude": 2.47339, "longitude": 101.857923 }, "geometry": { "type": "Point", "coordinates": [ 101.857923, 2.47339 ] } },
{ "type": "Feature", "properties": { "name": "McDonald'sShellSection13DT", "address": "No.1,Jalan13/55A,Seksyen13,40100ShahAlam,SelangorDarulEhsan.", "telephone": "03-55690661", "parlimen": "P.108 Shah Alam", "dun": "N.40 Kota Anggerik", "latitude": 3.0857043, "longitude": 101.55331 }, "geometry": { "type": "Point", "coordinates": [ 101.55331, 3.0857043 ] } },
{ "type": "Feature", "properties": { "name": "McDonald'sShellMahkotaCherasDT", "address": "BandarMahkotaCheras,43200,Batu9,Cheras,Selangor.", "telephone": "03-90109849", "parlimen": "P.102 Bangi", "dun": "N.25 Kajang", "latitude": 3.050911, "longitude": 101.786975 }, "geometry": { "type": "Point", "coordinates": [ 101.786975, 3.050911 ] } },
{ "type": "Feature", "properties": { "name": "McDonald'sBeverlyHillsDT", "address": "LotNo.CL215347916(Lot9),JalanBundusan,Penampang,88620KotaKinabalu,Sabah.", "telephone": "08-8710442", "parlimen": "P.174 Penampang", "dun": "N.25 Kapayan", "latitude": 5.931921, "longitude": 116.098781 }, "geometry": { "type": "Point", "coordinates": [ 116.098781, 5.931921 ] } },
{ "type": "Feature", "properties": { "name": "McDonald'sPetronBandarSaujanaPutraDT", "address": "PartofLot26104,JalanSaujanaPutra,BandarSaujanaPutra,OffLebuhrayaELITE,42610JenjaromSelangor.", "telephone": "03-51036118", "parlimen": "P.112 Kuala Langat", "dun": "N.51 Sijangkang", "latitude": 2.944413, "longitude": 101.587978 }, "geometry": { "type": "Point", "coordinates": [ 101.587978, 2.944413 ] } },
{ "type": "Feature", "properties": { "name": "McDonald'sJuruR&R", "address": "PartofLotNo.341&6154,Mukim6,JalanBukitTengah,SeberangPeraiTengah,13700PulauPinang", "telephone": "04-5026142", "parlimen": "P.046 Batu Kawan", "dun": "N.17 Bukit Tengah", "latitude": 5.355126, "longitude": 100.416819 }, "geometry": { "type": "Point", "coordinates": [ 100.416819, 5.355126 ] } },
{ "type": "Feature", "properties": { "name": "McDonald'sShaftsburyDT", "address": "UnitNo.G-17,GroundFloor,ShaftsburyPutrajaya,JalanAlamanda,Presint1,62000Putrajaya,WilayahPersekutuanPutrajaya", "telephone": "03-88612903", "parlimen": "P.125 Putrajaya", "dun": null, "latitude": 2.939236, "longitude": 101.713325 }, "geometry": { "type": "Point", "coordinates": [ 101.713325, 2.939236 ] } },
{ "type": "Feature", "properties": { "name": "McDonald'sPetronasPasirPekanDT", "address": "Lot3201,StesyenMinyakPetronas,KampungPasirPekan,16250,PasirPekanKotaBharu,KelantanDarulNaim", "telephone": "09-7186061", "parlimen": "P.019 Tumpat", "dun": "N.03 Pasir Pekan", "latitude": 6.1190494, "longitude": 102.2165414 }, "geometry": { "type": "Point", "coordinates": [ 102.2165414, 6.1190494 ] } },
{ "type": "Feature", "properties": { "name": "McDonald'sShellSS6", "address": "LotPT3630,JalanSS6/12,KelanaJaya,47301PetalingJaya,Selangor", "telephone": "03-78028854", "parlimen": "P.105 Petaling Jaya", "dun": "N.32 Seri Setia", "latitude": 3.105129, "longitude": 101.5975 }, "geometry": { "type": "Point", "coordinates": [ 101.5975, 3.105129 ] } },
{ "type": "Feature", "properties": { "name": "PetronasBatu3FederalHighwayDT", "address": "LotPT5,HD(D)239246,Batu3FederalHighway,PekanCountryHeight(FederalHighwayKlangBound),DaerahPetaling,46150SubangJaya,Selangor", "telephone": "016-2238193", "parlimen": "P.108 Shah Alam", "dun": "N.41 Batu Tiga", "latitude": 3.080722, "longitude": 101.572347 }, "geometry": { "type": "Point", "coordinates": [ 101.572347, 3.080722 ] } },
{ "type": "Feature", "properties": { "name": "McDonald'sKualaPilahDT", "address": "LotPT2781,JalanMelang,TamanMelang,72000KualaPilah,NegeriSembilan", "telephone": "06-4831069", "parlimen": "P.129 Kuala Pilah", "dun": "N.18 Pilah", "latitude": 2.73433, "longitude": 102.235089 }, "geometry": { "type": "Point", "coordinates": [ 102.235089, 2.73433 ] } },
{ "type": "Feature", "properties": { "name": "McDonald'sAmanjayaDT", "address": "PartofLot894-Lot900,Lot955-Lot961,Seksyen64,BandarAmanJaya,Seksyen64,BandarAmanJaya,08000,SungaiPetani,KedahDarulAman", "telephone": "04-4410974", "parlimen": "P.014 Merbok", "dun": "N.25 Bukit Selambau", "latitude": 5.6730823, "longitude": 100.5102205 }, "geometry": { "type": "Point", "coordinates": [ 100.5102205, 5.6730823 ] } },
{ "type": "Feature", "properties": { "name": "McDonald'sPearlPointDT", "address": "LotNoG-08,GroundFloor,PearlPointShoppingComple,5thMile,OldKlangRoad,58000KualaLumpur", "telephone": "03-79710196", "parlimen": "P.122 Seputeh", "dun": null, "latitude": 3.084915, "longitude": 101.673568 }, "geometry": { "type": "Point", "coordinates": [ 101.673568, 3.084915 ] } },
{ "type": "Feature", "properties": { "name": "McDonald'sStulangDT", "address": "LotPTB24076,JalanIbrahimSultan,StulangLaut,BandarJohorBahru,80300JohorBahru,Johor", "telephone": "07-2073794", "parlimen": "P.160 Johor Bahru", "dun": "N.45 Stulang", "latitude": 1.467432, "longitude": 103.778644 }, "geometry": { "type": "Point", "coordinates": [ 103.778644, 1.467432 ] } },
{ "type": "Feature", "properties": { "name": "McDonald'sEducityJBDT", "address": "LotPTD189218,JalanKampungLalang,Educity,IskandarPuteri,79100JohorBahru,Johor", "telephone": "07-5103667", "parlimen": "P.162 Iskandar Puteri", "dun": "N.49 Kota Iskandar", "latitude": 1.428935, "longitude": 103.616117 }, "geometry": { "type": "Point", "coordinates": [ 103.616117, 1.428935 ] } },
{ "type": "Feature", "properties": { "name": "McDonald'sJalanP.Ramlee", "address": "LotG-W-1,GroundFloor,WestWing,RohasPureCircle,No9,JalanPRamlee,50450KualaLumpur", "telephone": "03-21815851", "parlimen": "P.120 Bukit Bintang", "dun": null, "latitude": 3.154587, "longitude": 101.708461 }, "geometry": { "type": "Point", "coordinates": [ 101.708461, 3.154587 ] } },
{ "type": "Feature", "properties": { "name": "McDonald'sBaganAjamDT", "address": "PlotNo.2,PusatPerniagaanOren,DiatasLot10067(SebahagianLotLama:35),JalanBaganAjamSeksyen1,13000BandarButterworth,SeberangPeraiUtaraPulauPinang.", "telephone": "04-3137858", "parlimen": "P.043 Bagan", "dun": "N.07 Sungai Puyu", "latitude": 5.440361, "longitude": 100.381611 }, "geometry": { "type": "Point", "coordinates": [ 100.381611, 5.440361 ] } },
{ "type": "Feature", "properties": { "name": "McDonald'sAMJBertamDT", "address": "GM229,Lot18859,MukimBertam,75260DaerahMelakaTengah,Melaka", "telephone": "06-3347865", "parlimen": "P.138 Kota Melaka", "dun": "N.19 Kesidang", "latitude": 2.253646, "longitude": 102.222233 }, "geometry": { "type": "Point", "coordinates": [ 102.222233, 2.253646 ] } },
{ "type": "Feature", "properties": { "name": "McDonald'sSempornaDT", "address": "CountryLease125340490,Mile1,JalanBubul,91308Semporna,Sabah", "telephone": "08-9788603", "parlimen": "P.189 Semporna", "dun": "N.65 Senallang", "latitude": 4.475638, "longitude": 118.607646 }, "geometry": { "type": "Point", "coordinates": [ 118.607646, 4.475638 ] } },
{ "type": "Feature", "properties": { "name": "McDonald'sKeningauDT", "address": "CountryLease135367387,JalanJabatanPerhutanan,OffLebuhrayaKeningau-Tambunan,89008Keningau,Sabah", "telephone": "08-7332181", "parlimen": "P.180 Keningau", "dun": "N.41 Liawan", "latitude": 5.33996, "longitude": 116.157801 }, "geometry": { "type": "Point", "coordinates": [ 116.157801, 5.33996 ] } },
{ "type": "Feature", "properties": { "name": "McDonald'sPSSBukitKatilDT", "address": "Lot4985,JalanTunHamzah,MukimBukitKatil,75450BukitKatil,Melaka", "telephone": "06-3182439", "parlimen": "P.137 Hang Tuah Jaya", "dun": "N.17 Bukit Katil", "latitude": 2.235689, "longitude": 102.301093 }, "geometry": { "type": "Point", "coordinates": [ 102.301093, 2.235689 ] } },
{ "type": "Feature", "properties": { "name": "McDonald'sLikasBayKK", "address": "LotC,AnjungSelera,TanjungLipat,LikasJalanTunFuadStephens,88400KotaKinabaluSabah", "telephone": "015-96322370", "parlimen": "P.171 Sepanggar", "dun": "N.17 Darau", "latitude": 6.009846, "longitude": 116.110757 }, "geometry": { "type": "Point", "coordinates": [ 116.110757, 6.009846 ] } },
{ "type": "Feature", "properties": { "name": "McDonald'sBHPJalanKepong", "address": "LotPT1,Batu61/2,JalanKepong,52000KualaLumpur", "telephone": "03-62500090", "parlimen": "P.114 Kepong", "dun": null, "latitude": 3.208163, "longitude": 101.653579 }, "geometry": { "type": "Point", "coordinates": [ 101.653579, 3.208163 ] } },
{ "type": "Feature", "properties": { "name": "McDonald'sPetronasBandarKinraraDT", "address": "PartofLot4054,Phase5A,JalanKinrara6,BandarKinrara,47180Puchong,Selangor", "telephone": "03-80740617", "parlimen": "P.104 Subang", "dun": "N.30 Kinrara", "latitude": 3.036724, "longitude": 101.654738 }, "geometry": { "type": "Point", "coordinates": [ 101.654738, 3.036724 ] } },
{ "type": "Feature", "properties": { "name": "McDonald'sPetronasTamanDagangDrive-Thru", "address": "PetronasTamanDagang,PT12671,JalanNirwana,TamanNirwana,68000,Ampang,Selangor.", "telephone": "03-42705247", "parlimen": "P.100 Pandan", "dun": "N.21 Pandan Indah", "latitude": 3.145192, "longitude": 101.755045 }, "geometry": { "type": "Point", "coordinates": [ 101.755045, 3.145192 ] } },
{ "type": "Feature", "properties": { "name": "McDonald'sDesaTebrauDT", "address": "LotPTD83404,TamanDesaTebrau,81100MukimTebrau,JohorBahru", "telephone": "015-96368490", "parlimen": "P.158 Tebrau", "dun": "N.41 Puteri Wangsa", "latitude": 1.55525, "longitude": 103.798566 }, "geometry": { "type": "Point", "coordinates": [ 103.798566, 1.55525 ] } },
{ "type": "Feature", "properties": { "name": "McDonald'sShellJalanSentulDT", "address": "PT8938,JalanSentul/BatuCaves,MukimSetapak,Sentul,51100KualaLumpur", "telephone": "016-2127692", "parlimen": "P.109 Kapar", "dun": "N.42 Meru", "latitude": 3.12223, "longitude": 101.41208 }, "geometry": { "type": "Point", "coordinates": [ 101.41208, 3.12223 ] } },
{ "type": "Feature", "properties": { "name": "McDonald'sSubangBestariDT", "address": "PT42395,JalanNovaJU5/J,SubangBestari,SeksyenU5,40150ShahAlam,Selangor.", "telephone": "03-78311205", "parlimen": "P.107 Sungai Buloh", "dun": "N.39 Kota Damansara", "latitude": 3.176072, "longitude": 101.545641 }, "geometry": { "type": "Point", "coordinates": [ 101.545641, 3.176072 ] } },
{ "type": "Feature", "properties": { "name": "McDonald'sBahauDT", "address": "PT1127,JalanKiara1/2,PusatPerniagaanKiara,72100Bahau,NegeriSembilan", "telephone": "06-4539877", "parlimen": "P.127 Jempol", "dun": "N.07 Jeram Padang", "latitude": 2.825381, "longitude": 102.431691 }, "geometry": { "type": "Point", "coordinates": [ 102.431691, 2.825381 ] } },
{ "type": "Feature", "properties": { "name": "McDonald'sTampinDT", "address": "Lot613,JalanSeremban-Tampin,73000Tampin,NegeriSembilan", "telephone": "016-2372097", "parlimen": "P.133 Tampin", "dun": "N.36 Repah", "latitude": 2.473091, "longitude": 102.226762 }, "geometry": { "type": "Point", "coordinates": [ 102.226762, 2.473091 ] } },
{ "type": "Feature", "properties": { "name": "McDonald'sKualaKangsarDT", "address": "Lot2492,JalanTaiping,MukimSayong,33000DaerahKualaKangsar,PerakDarulRidzuan", "telephone": "05-7762482", "parlimen": "P.067 Kuala Kangsar", "dun": "N.34 Bukit Chandan", "latitude": 4.772459, "longitude": 100.932845 }, "geometry": { "type": "Point", "coordinates": [ 100.932845, 4.772459 ] } },
{ "type": "Feature", "properties": { "name": "McDonald'sEcoMajesticDT", "address": "No.1,JalanEcoMajestic9/1,EcoMajestic,43500Semenyih,Selangor", "telephone": "03-87239527", "parlimen": "P.101 Hulu Langat", "dun": "N.24 Semenyih", "latitude": 2.901795, "longitude": 101.836588 }, "geometry": { "type": "Point", "coordinates": [ 101.836588, 2.901795 ] } },
{ "type": "Feature", "properties": { "name": "McDonald'sWismaLimFooYong", "address": "WismaLimFooYong,LotNo.62,Seksyen57,JalanRajaChulan,50250KualaLumpur.", "telephone": "03-21102479", "parlimen": "P.110 Klang", "dun": "N.45 Bandar Baru Klang", "latitude": 3.09032, "longitude": 101.42334 }, "geometry": { "type": "Point", "coordinates": [ 101.42334, 3.09032 ] } },
{ "type": "Feature", "properties": { "name": "McDonald'sPKNSPJDT", "address": "Lot201,No.17,JalanYongShookLin,MenaraPKNSPetalingJaya,Seksyen7,46050SelangorDarulEhsan", "telephone": "03-79314943", "parlimen": "P.109 Kapar", "dun": "N.43 Sementa", "latitude": 3.05596, "longitude": 101.3834 }, "geometry": { "type": "Point", "coordinates": [ 101.3834, 3.05596 ] } },
{ "type": "Feature", "properties": { "name": "McDonald'sMerlimauDT", "address": "PT6370,JalanBMU1,BandarBaruMerlimauUtara,77300Merlimau,Melaka", "telephone": "06-2639126", "parlimen": "P.139 Jasin", "dun": "N.27 Merlimau", "latitude": 2.169054, "longitude": 102.431728 }, "geometry": { "type": "Point", "coordinates": [ 102.431728, 2.169054 ] } },
{ "type": "Feature", "properties": { "name": "McDonald'sSentulUOADT", "address": "LOTPT10098,JalanSentulPasar,MukimSetapakDalam,BandarayaKualaLumpur51000KualaLumpur", "telephone": "03-27029214", "parlimen": "P.115 Batu", "dun": null, "latitude": 3.202057, "longitude": 101.689976 }, "geometry": { "type": "Point", "coordinates": [ 101.689976, 3.202057 ] } },
{ "type": "Feature", "properties": { "name": "McDonald'sPSSUSJ1DT", "address": "LotHS(D)216848,PT36061,PekanPenaga,TamanSubangMewah,SubangJaya,Selangor", "telephone": "03-80812681", "parlimen": "P.104 Subang", "dun": "N.31 Subang Jaya", "latitude": 3.04779, "longitude": 101.601864 }, "geometry": { "type": "Point", "coordinates": [ 101.601864, 3.04779 ] } },
{ "type": "Feature", "properties": { "name": "McDonald'sSeriAustinDT", "address": "Lot132943,PersiaranJayaPutra,TamanSeriAustin,81100JohorBahru,Johor.", "telephone": "07-3643411", "parlimen": "P.158 Tebrau", "dun": "N.41 Puteri Wangsa", "latitude": 1.579057, "longitude": 103.749927 }, "geometry": { "type": "Point", "coordinates": [ 103.749927, 1.579057 ] } },
{ "type": "Feature", "properties": { "name": "McDonald'sSimpangRenggamDT", "address": "Lot17143,JalanBesar,MukimRenggam,SimpangRenggam,86200Kluang,Johor", "telephone": "011-10895318", "parlimen": "P.151 Simpang Renggam", "dun": "N.27 Layang-Layang", "latitude": 1.822241, "longitude": 103.315606 }, "geometry": { "type": "Point", "coordinates": [ 103.315606, 1.822241 ] } },
{ "type": "Feature", "properties": { "name": "McDonald'sPSSJalanREKO", "address": "Lot53934,RekoSentral,MukimKajang,43000DaerahHuluLangat,Selangor", "telephone": "03-87354278", "parlimen": "P.102 Bangi", "dun": "N.25 Kajang", "latitude": 2.969077, "longitude": 101.789231 }, "geometry": { "type": "Point", "coordinates": [ 101.789231, 2.969077 ] } },
{ "type": "Feature", "properties": { "name": "McDonald'sPSSTamanPerlingDT", "address": "Lot50844,JalanLayang16,TamanPerling,81200JohorBahru,Johor", "telephone": "07-2171431", "parlimen": "P.161 Pulai", "dun": "N.46 Perling", "latitude": 1.4738, "longitude": 103.66878 }, "geometry": { "type": "Point", "coordinates": [ 103.66878, 1.4738 ] } },
{ "type": "Feature", "properties": { "name": "McDonald'sKotaStarDT", "address": "Lot81,JalanSultanahBahiyah,MukimAlorMalai.05350KotaSetarKedah", "telephone": "04-7372976", "parlimen": "P.009 Alor Setar", "dun": "N.12 Suka Menanti", "latitude": 6.1431924, "longitude": 100.3654614 }, "geometry": { "type": "Point", "coordinates": [ 100.3654614, 6.1431924 ] } },
{ "type": "Feature", "properties": { "name": "McDonald'sCameronHighlandDT", "address": "LotPt3275,MukimTanahRata,39000,DaerahCameronHighlands,PahangDarulMakmur.", "telephone": "05-4914107", "parlimen": "P.078 Cameron Highlands", "dun": "N.01 Tanah Rata", "latitude": 4.496029, "longitude": 101.390626 }, "geometry": { "type": "Point", "coordinates": [ 101.390626, 4.496029 ] } },
{ "type": "Feature", "properties": { "name": "McDonald'sPSSBukitBeruntungDT", "address": "Lot10496,No.1JalanKamunting,MukimSerendah,48300DaerahHuluSelangor,Selangor", "telephone": "03-60218371", "parlimen": "P.094 Hulu Selangor", "dun": "N.07 Batang Kali", "latitude": 3.41297, "longitude": 101.557582 }, "geometry": { "type": "Point", "coordinates": [ 101.557582, 3.41297 ] } },
{ "type": "Feature", "properties": { "name": "McDonald'sShellTasikAmpangDT", "address": "LotPT2536,LebuhRayaLingkaranTengah2,MukimAmpang,55000KualaLumpur", "telephone": null, "parlimen": "P.119 Titiwangsa", "dun": null, "latitude": 3.151919749, "longitude": 101.745321 }, "geometry": { "type": "Point", "coordinates": [ 101.745321, 3.151919749 ] } },
{ "type": "Feature", "properties": { "name": "McDonald'sKubangKerianDT", "address": "Lot523Seksyen54,MukimKenali,DaerahKubangKerian,JajahanKotaBharu,KelantanDarulNaim", "telephone": null, "parlimen": "P.024 Kubang Kerian", "dun": "N.19 Demit", "latitude": 6.093778, "longitude": 102.27775 }, "geometry": { "type": "Point", "coordinates": [ 102.27775, 6.093778 ] } },
{ "type": "Feature", "properties": { "name": "McDonald'sKajangImpianDT", "address": "LotPT.70550,JalanKajangImpian1/2,TamanKajangImpian,MukimBandarBaruBangi,43650DaerahHuluLangat,SelangorDarulEhsan", "telephone": "03-89221937", "parlimen": "P.102 Bangi", "dun": "N.25 Kajang", "latitude": 2.975016, "longitude": 101.77144 }, "geometry": { "type": "Point", "coordinates": [ 101.77144, 2.975016 ] } },
{ "type": "Feature", "properties": { "name": "McDonald'sShellLukutDT", "address": "PT4849,JalanBesarLukut,Batu4,BandarBaruLukut,71010PortDickson,NegeriSembilan", "telephone": null, "parlimen": "P.132 Port Dickson", "dun": "N.30 Lukut", "latitude": 2.565154633, "longitude": 101.820597 }, "geometry": { "type": "Point", "coordinates": [ 101.820597, 2.565154633 ] } },
{ "type": "Feature", "properties": { "name": "McDonald'sPSSBangiNBLaybyDT", "address": "LotPT2(HSD41974)BerhadapanLebuhraya,UtaraSelatanKL-(KM297.9-298.1ArahUtara)BandarSungaiMerab,MukimDengkil,Sepang,SelangorDarulEhsan\r\r\r\r\r\r\r\r\r\r\r\r\r\r\r", "telephone": "03-89229640", "parlimen": "P.113 Sepang", "dun": "N.55 Dengkil", "latitude": 2.945037, "longitude": 101.751844 }, "geometry": { "type": "Point", "coordinates": [ 101.751844, 2.945037 ] } },
{ "type": "Feature", "properties": { "name": "McDonald'sShellDengkilBypassDT", "address": "Lot101777,KM48.7,JalanPintasanDengkil-Putrajaya(FT29)ArahUtara,43800Dengkil,Selangor", "telephone": null, "parlimen": "P.113 Sepang", "dun": "N.55 Dengkil", "latitude": 2.869292, "longitude": 101.685648 }, "geometry": { "type": "Point", "coordinates": [ 101.685648, 2.869292 ] } },
{ "type": "Feature", "properties": { "name": "McDonald'sCalteSungaiDuaDT", "address": "CalteSungaiDuaNorthBound,PMT10359,KM132.5,LebuhrayaUtaraSelatan,13600PermatangPauh,PulauPinang", "telephone": null, "parlimen": "P.044 Permatang Pauh", "dun": "N.11 Permatang Pasir", "latitude": 5.423207, "longitude": 100.4128 }, "geometry": { "type": "Point", "coordinates": [ 100.4128, 5.423207 ] } },
{ "type": "Feature", "properties": { "name": "McDonald'sShellBandarBotanikDT", "address": "LotPT118176JalanLangat,BandarBotanik,41200Klang,Selangor", "telephone": null, "parlimen": "P.111 Kota Raja", "dun": "N.49 Sungai Kandis", "latitude": 2.99088, "longitude": 101.4477997 }, "geometry": { "type": "Point", "coordinates": [ 101.4477997, 2.99088 ] } },
{ "type": "Feature", "properties": { "name": "McDonald'sShellBukitBintangDT", "address": "225,BukitBintangSt,Imbi,55100KualaLumpur,FederalTerritoryOfKualaLumpur", "telephone": null, "parlimen": "P.120 Bukit Bintang", "dun": null, "latitude": 3.14752, "longitude": 101.7178428 }, "geometry": { "type": "Point", "coordinates": [ 101.7178428, 3.14752 ] } },
{ "type": "Feature", "properties": { "name": "McDonald'sBandarBukitPuchongDT", "address": "2,JalanBP7/1Sierra7,BandarBukitPuchong,47120Puchong,Selangor", "telephone": null, "parlimen": "P.103 Puchong", "dun": "N.29 Seri Serdang", "latitude": 2.98357, "longitude": 101.6171598 }, "geometry": { "type": "Point", "coordinates": [ 101.6171598, 2.98357 ] } },
{ "type": "Feature", "properties": { "name": "McDonald'sGentingGrand", "address": "LotNo.G/LG1A.00,LowerGroundFloor,GentingGrandHotel,GentingHighlandsResort,69000GentingHighland,Pahang", "telephone": null, "parlimen": "P.089 Bentong", "dun": "N.34 Ketari", "latitude": 3.43353, "longitude": 101.7925899 }, "geometry": { "type": "Point", "coordinates": [ 101.7925899, 3.43353 ] } },
{ "type": "Feature", "properties": { "name": "McDonald'sLangkawiKuahDT", "address": "Lot107,MukimKuah,07000DaerahLangkawiKedah", "telephone": null, "parlimen": "P.004 Langkawi", "dun": "N.02 Kuah", "latitude": 6.32844, "longitude": 99.834406 }, "geometry": { "type": "Point", "coordinates": [ 99.834406, 6.32844 ] } },
{ "type": "Feature", "properties": { "name": "McDonald'sAmvertonDT", "address": "Lot85631,JalanU17/16,BukitAmvertonSeksyenU17,40160ShahAlam,Selangor", "telephone": null, "parlimen": "P.107 Sungai Buloh", "dun": "N.38 Paya Jaras", "latitude": 3.216468, "longitude": 101.5293271 }, "geometry": { "type": "Point", "coordinates": [ 101.5293271, 3.216468 ] } },
{ "type": "Feature", "properties": { "name": "McDonald'sICONICSimpangAmpatDT", "address": "2,JalanIconicPoint,IconicPoint,14100SimpangAmpat,PulauPinang", "telephone": null, "parlimen": "P.046 Batu Kawan", "dun": "N.18 Bukit Tambun", "latitude": 5.283685, "longitude": 100.476241 }, "geometry": { "type": "Point", "coordinates": [ 100.476241, 5.283685 ] } },
{ "type": "Feature", "properties": { "name": "McDonald'sShellJalanKuchingDT", "address": "Lot58043,JalanKuching,MukimBatu68100,WlayahPersekutuanKualaLumpur", "telephone": null, "parlimen": "P.115 Batu", "dun": null, "latitude": 3.223098, "longitude": 101.6721257 }, "geometry": { "type": "Point", "coordinates": [ 101.6721257, 3.223098 ] } },
{ "type": "Feature", "properties": { "name": "McDonald'sPenangInternationalAirport", "address": "LotPC05,DepatureLevel,PenangInternationalAirport,11900BayanLepas,PulauPinang", "telephone": null, "parlimen": "P.052 Bayan Baru", "dun": "N.37 Batu Maung", "latitude": 5.293007, "longitude": 100.265933 }, "geometry": { "type": "Point", "coordinates": [ 100.265933, 5.293007 ] } },
{ "type": "Feature", "properties": { "name": "McDonald'sTroika", "address": "Lot1-1,1-2ResidensiTroika,JalanMahmood,15200KotaBharu,Kelantan", "telephone": null, "parlimen": "P.021 Kota Bharu", "dun": "N.09 Kota Lama", "latitude": 6.120501, "longitude": 102.240525 }, "geometry": { "type": "Point", "coordinates": [ 102.240525, 6.120501 ] } },
{ "type": "Feature", "properties": { "name": "McDonald'sLabuan", "address": "IR9/C12,TropicalUmbrellaLight,IndustrialEstate,JalanArsat,87014,WPLabuan,Malaysia", "telephone": null, "parlimen": "P.166 Labuan", "dun": null, "latitude": 5.296338, "longitude": 115.238963 }, "geometry": { "type": "Point", "coordinates": [ 115.238963, 5.296338 ] } },
{ "type": "Feature", "properties": { "name": "McDonald'sShellWangsaMajuDT", "address": "Lot28332,Jalan8/27A,PusatBandarWangsaMaju,53300KualaLumpur", "telephone": null, "parlimen": "P.118 Setiawangsa", "dun": null, "latitude": 3.19744, "longitude": 101.744674130684 }, "geometry": { "type": "Point", "coordinates": [ 101.744674130684004, 3.19744 ] } },
{ "type": "Feature", "properties": { "name": "McDonald'sJalanTunRazakDT", "address": "No9,JalanFletcher,50400KualaLumpur", "telephone": null, "parlimen": "P.118 Setiawangsa", "dun": null, "latitude": 3.1721, "longitude": 101.7086 }, "geometry": { "type": "Point", "coordinates": [ 101.7086, 3.1721 ] } },
{ "type": "Feature", "properties": { "name": "McDonald'sCalteKrubongDT", "address": "SebahagianLot23344,JalanPantaiBelimbing,75260Krubong,Melaka", "telephone": null, "parlimen": "P.136 Tangga Batu", "dun": "N.13 Paya Rumput", "latitude": 2.29776, "longitude": 102.24862 }, "geometry": { "type": "Point", "coordinates": [ 102.24862, 2.29776 ] } },
{ "type": "Feature", "properties": { "name": "McDonald'sShellSerembanJayaDT", "address": "JalanSerembanJaya,PT2443,Pekan,71450Seremban,NegeriSembilan", "telephone": null, "parlimen": "P.130 Rasah", "dun": "N.24 Seremban Jaya", "latitude": 2.675337, "longitude": 101.975288 }, "geometry": { "type": "Point", "coordinates": [ 101.975288, 2.675337 ] } },
{ "type": "Feature", "properties": { "name": "McDonald'sIKEABatuKawanDT", "address": "PlotNo.1,HSD47588,PT5910,Mukim13,SeberangPeraiSelatan,14100BatuKawan,PulauPinang", "telephone": null, "parlimen": "P.046 Batu Kawan", "dun": "N.18 Bukit Tambun", "latitude": 5.234703, "longitude": 100.442596 }, "geometry": { "type": "Point", "coordinates": [ 100.442596, 5.234703 ] } },
{ "type": "Feature", "properties": { "name": "McDonald'sPetronasTanahMerahDT", "address": "PSSMaka,Lot9844&9845,MukimofMaka,17500JajahanTanahMerah,Kelantan.", "telephone": null, "parlimen": "P.027 Tanah Merah", "dun": "N.26 Bukit Panau", "latitude": 5.821232, "longitude": 102.149476 }, "geometry": { "type": "Point", "coordinates": [ 102.149476, 5.821232 ] } },
{ "type": "Feature", "properties": { "name": "McDonald'sEdusphereDT", "address": "AtelierCentre,JalanAtelier1,Edusphere,Cyber11,63000Cyberjaya,Selangor.", "telephone": null, "parlimen": "P.113 Sepang", "dun": "N.55 Dengkil", "latitude": 2.93385, "longitude": 101.63631 }, "geometry": { "type": "Point", "coordinates": [ 101.63631, 2.93385 ] } },
{ "type": "Feature", "properties": { "name": "McDonald'sPetronNorthKiaraDT", "address": "452,JalanSegambut,KampungSegambutTengah,1200KualaLumpur", "telephone": null, "parlimen": "P.117 Segambut", "dun": null, "latitude": 3.18298, "longitude": 101.65492 }, "geometry": { "type": "Point", "coordinates": [ 101.65492, 3.18298 ] } },
{ "type": "Feature", "properties": { "name": "McDonald'sTanjungTokongDT", "address": "No.6,JalanTanjungTokong,10250GeorgeTownPulauPinang", "telephone": null, "parlimen": "P.048 Bukit Bendera", "dun": "N.25 Pulau Tikus", "latitude": 5.446954, "longitude": 100.3055678 }, "geometry": { "type": "Point", "coordinates": [ 100.3055678, 5.446954 ] } },
{ "type": "Feature", "properties": { "name": "McDonald'sPantaiSentralParkDT", "address": "No.2,JalanPantaiSentral1,PantaiSentral,59200,WilayahPersekutuanKualaLumpur.", "telephone": null, "parlimen": "P.121 Lembah Pantai", "dun": null, "latitude": 3.101972, "longitude": 101.666333 }, "geometry": { "type": "Point", "coordinates": [ 101.666333, 3.101972 ] } },
{ "type": "Feature", "properties": { "name": "McDonald'sTanjongMalimDT", "address": "Lot232,JalanTanjongMalim,ProtonCity,MukimHuluBernamProtonCity,MukimHuluBernam,35900TimorDaerahMuallim,Perak.", "telephone": null, "parlimen": "P.077 Tanjong Malim", "dun": "N.59 Behrang", "latitude": 3.69252, "longitude": 101.52008 }, "geometry": { "type": "Point", "coordinates": [ 101.52008, 3.69252 ] } }
]
}
